Date,Adress,Size,Rooms,Broker,Rent,Price,Datetime,PricePerKvm,NearbyPOIs,Latitude,Longitude
20220831,Mörsilsgatan 6,20,1,Jonathan Bergstrand,1630,1250000,2022-08-31,62500,30,59.3664034449979,17.8740692138672
20220830,Bällstavägen 203,20,1,Deisam Sulayman,2432,1595000,2022-08-30,79750,14,59.3559055007418,17.9097747802734
2019037,Fågelstavägen 24,20,1,Jim Ribe,1341,1675000,2019-03-07,83750,23,59.2704015360823,18.0471038818359
2022096,Skälderviksplan 11,20,1,Unknown,2423,1800000,2022-09-06,90000,145,59.298809892501,18.0333709716797
2022128,Forsskålsgatan 16,20,1,Rebecka Svensk,1857,1850000,2022-12-08,92500,465,59.2995110335101,18.0896759033203
2021056,Arvodesvägen 18,20,1,Unknown,1450,1850000,2021-05-06,92500,63,59.2991604648118,17.9832458496094
2020084,Guldsmedsvägen 5,20,1,Unknown,1472,1870000,2020-08-04,93500,125,59.2879403589468,18.0903625488281
20220824,Bergsrådsvägen 8,20,1,Selma Fazlic,1632,1888000,2022-08-24,94400,27,59.2760149423853,18.1288146972656
20211014,Bällstavägen 18,20,1,Michelle Colegate,1446,1895000,2021-10-14,94750,111,59.3604550086278,17.9578399658203
20190212,Arvodesvägen 20,20,1,Unknown,1315,1895000,2019-02-12,94750,65,59.2991604648118,17.9839324951172
20191115,Sjöbjörnsvägen 11,20,1,Johanna Dahlerus,1269,1950000,2019-11-15,97500,157,59.3166844749487,18.0079650878906
2021056,Nybohovsbacken 63,20,1,Alexander Shahin,1144,1950000,2021-05-06,97500,193,59.3086245517671,18.0155181884766
2022091,Etsarvägen 2,20,1,Destiny Fröstad,1288,1980000,2022-09-01,99000,478,59.2977581538934,18.0752563476563
2022015,Paternostervägen 66,20,1,Unknown,1188,2050000,2022-01-05,102500,99,59.2903950732364,18.1027221679688
20220816,Tjärhovsgatan 22,20,1,Unknown,2011,2120000,2022-08-16,106000,1100,59.3152828864145,18.0773162841797
20221026,Krukmakargatan 38,20,1,Matilda Gustafson,2163,2450000,2022-10-26,122500,850,59.3170348630541,18.0519104003906
20220518,Vindragarvägen 12,20,1,Unknown,1110,2475000,2022-05-18,123750,344,59.3187867494125,18.017578125
20190820,Bergsgatan 19,20,1,Angelica Hermansson,1076,2500000,2019-08-20,125000,1000,59.3296464299437,18.0429840087891
20200731,Högalidsgatan 34 D,20,1,Unknown,966,2500000,2020-07-31,125000,522,59.3184363793632,18.0388641357422
20190930,Garvargatan 22 5tr,20,1,Thilde Ångström,891,2550000,2019-09-30,127500,947,59.3285956447654,18.0416107177734
20210422,Maskrosstigen 8C,20,1,Unknown,855,2550000,2021-04-22,127500,22,59.2711032624704,17.9612731933594
20210815,Birger Jarlsgatan 104G,20,1,Emillio Afram,1497,2575000,2021-08-15,128750,1200,59.3475048070169,18.0628967285156
20200428,Rehnsgatan 12 A,20,1,Unknown,1217,2580000,2020-04-28,129000,1300,59.3433036805996,18.0601501464844
2022105,Birger Jarlsgatan 104 G,20,1,Simon Hedlund,1467,2650000,2022-10-05,132500,1200,59.3475048070169,18.0628967285156
2022084,Bergsgatan 45,20,1,Hampus Schöllin,1107,2700000,2022-08-04,135000,746,59.330346935344,18.0381774902344
20221026,Gyllenstiernsgatan 19,20,1,Unknown,1004,2700000,2022-10-26,135000,238,59.3380515416625,18.1006622314453
20221017,Kronobergsgatan 20,20,1,Nathalie Jensen,1426,2750000,2022-10-17,137500,604,59.3356002655423,18.0354309082031
20210521,Hantverkargatan 28a,20,1,Daniel Berg,817,2780000,2021-05-21,139000,1000,59.329296171828,18.0429840087891
20220216,Skillinggränd 9,20,1,Unknown,1159,2790000,2022-02-16,139500,1300,59.327895103261,18.0491638183594
20220619,Gästrikegatan 7,20,1,Unknown,1070,2850000,2022-06-19,142500,702,59.3408527834981,18.03955078125
20210817,Kungstensgatan 67,20,1,Nicola Grez-Pancetti,1386,2865000,2021-08-17,143250,1100,59.3391020344237,18.0491638183594
20200523,Grevgatan 25B,20,1,Unknown,749,2920000,2020-05-23,146000,995,59.3341994569121,18.0841827392578
20220319,Dalagatan 68A,20,1,Emma Rågberg fd Hjalmarsson,1159,2925000,2022-03-19,146250,934,59.3440039044291,18.0436706542969
20221018,Robert Almströmsgatan 6,20,1,Unknown,1249,3000000,2022-10-18,150000,547,59.3387518737797,18.0340576171875
20211214,Högalidsgatan 34D,20,1,Unknown,942,3000000,2021-12-14,150000,522,59.3184363793632,18.0388641357422
20221026,Gyllenborgsgatan 16. 1,20.5,1,Unknown,1100,2300000,2022-10-26,112195,334,59.3327985905208,18.0162048339844
2022066,Kungsbro Strand 19,20.5,1,Unknown,1739,2350000,2022-06-06,114634,1400,59.330346935344,18.050537109375
20181212,Thorildsvägen 2,20.5,2,Unknown,1149,2530000,2018-12-12,123415,349,59.3327985905208,18.0168914794922
20220114,Sparbanksvägen 14 lgh 1002,21,1,William Kajo,1400,1550000,2022-01-14,73810,58,59.2981087370418,17.9825592041016
20221128,Isgränd 7,21,1,Unknown,1311,1680000,2022-11-28,80000,36,59.2907457322538,17.9681396484375
2020107,Inteckningsvägen 13,21,1,Kim Ekholm,925,1825000,2020-10-07,86905,64,59.2917976876279,17.9853057861328
20210425,Isgränd 17,21,1,Unknown,1311,1900000,2021-04-25,90476,33,59.2907457322538,17.9667663574219
2022039,Bäckaskiftsvägen 17 A,21,1,Unknown,1100,1950000,2022-03-09,92857,25,59.2749624991807,18.050537109375
20210421,Grafikvägen 22,21,1,Josefin Uggla,1089,2050000,2021-04-21,97619,460,59.2974075671325,18.0766296386719
2022113,Hästholmsvägen 10,21,1,Andreas Peterson,1001,2100000,2022-11-03,100000,164,59.3121291009452,18.10546875
20211010,Vattenledningsvägen 47,21,1,Alexandra Ekstrand,2082,2200000,2021-10-10,104762,116,59.3026659892377,18.0093383789063
20221124,Timmermansgatan 13,21,1,Unknown,1502,2325000,2022-11-24,110714,1500,59.3187867494125,18.0594635009766
20220220,Finn Malmgrens Väg 2 B,21,1,julia larsson,1417,2350000,2022-02-20,111905,190,59.2949533586518,18.0979156494141
2020049,Birger Jarlsgatan 104 J,21,1,Anna Hoffman,1559,2395000,2020-04-09,114048,1200,59.3475048070169,18.0628967285156
20221014,Wollmar Yxkullsgatan 48A,21,1,Robin Nyvall,1377,2435000,2022-10-14,115952,877,59.3156332889651,18.0539703369141
20210131,Anders Reimers väg 14,21,1,Unknown,1412,2450000,2021-01-31,116667,375,59.3194874786778,18.0251312255859
2022123,Valhallavägen 47,21,1,Unknown,1312,2500000,2022-12-03,119048,1200,59.3478548774249,18.0663299560547
20210611,Heleneborgsgatan 9 A - egen ingång,21,1,Unknown,1265,2500000,2021-06-11,119048,496,59.3191371158507,18.0374908447266
20201013,Högalidsgatan 34C,21,1,Unknown,996,2500000,2020-10-13,119048,500,59.3184363793632,18.0381774902344
20220314,Gjutargatan 4 A,21,1,Unknown,857,2500000,2022-03-14,119048,454,59.3370010164131,18.028564453125
20190125,Narvavägen 22,21,1,Unknown,808,2500000,2019-01-25,119048,456,59.3359504586749,18.0917358398438
20191114,Bondegatan 55,21,1,Unknown,1227,2525000,2019-11-14,120238,627,59.3138812400984,18.0896759033203
20210624,Baltzar Von Platens Gata 7C,21,1,Mikael Bjérnhof,539,2580000,2021-06-24,122857,576,59.3296464299437,18.0313110351563
20221020,Birger Jarlsgatan 104K,21,1,Unknown,1524,2650000,2022-10-20,126190,1200,59.3475048070169,18.0628967285156
20210512,Ringvägen 139,21,1,Unknown,1343,2650000,2021-05-12,126190,828,59.3086245517671,18.0807495117188
20220823,Heleneborgsgatan 24,21,1,Unknown,933,2650000,2022-08-23,126190,519,59.3194874786778,18.0381774902344
2022115,Birger Jarlsgatan 104J,21,1,Emillio Afram,1467,2695000,2022-11-05,128333,1200,59.3475048070169,18.0628967285156
20210414,Svartensgatan 10,21,1,Unknown,1382,2725000,2021-04-14,129762,1400,59.3173852475481,18.0731964111328
20221227,Birger Jarlsgatan 104A,21,1,Unknown,1524,2745000,2022-12-27,130714,1200,59.3478548774249,18.0622100830078
20220615,Frejgatan 25A,21,1,Viktor Moberg,1074,2750000,2022-06-15,130952,1200,59.3475048070169,18.0580902099609
20221025,Robert Almströmsgatan 8,21,1,Alexander König,1187,2760000,2022-10-25,131429,547,59.3387518737797,18.0340576171875
2022121,Karlavägen 90A,21,1,Unknown,1609,2765000,2022-12-01,131667,391,59.3366508341103,18.0931091308594
20201117,Kungsklippan 17 B,21,1,Jakob Jakobsson,808,2780000,2020-11-17,132381,1300,59.330346935344,18.0464172363281
2022055,Birger Jarlsgatan 104 I,21,1,Unknown,1497,2790000,2022-05-05,132857,1200,59.3475048070169,18.0628967285156
20210331,Styrmansgatan 35,21,1,Niklas Wellmér,1332,2810000,2021-03-31,133810,777,59.3348998684472,18.0869293212891
20210422,Styrmansgatan 21A,21,1,Unknown,894,3100000,2021-04-22,147619,933,59.3338492457294,18.0855560302734
20200917,Grevgatan 47 A,21,1,Robin Nyvall,595,3250000,2020-09-17,154762,839,59.3363006481976,18.0862426757813
20220617,Inedalsgatan 15,21,1,Nils Janemar,1503,3325000,2022-06-17,158333,633,59.3352500687998,18.0361175537109
20210119,Storsjövägen 34,21.2,1,Unknown,1192,1795000,2021-01-19,84670,148,59.2984593165776,18.03955078125
20221123,Elias Lönnrots väg 5c,21.3,1,Tobias Willhardt,1846,1300000,2022-11-23,61033,34,59.3492551229662,17.8795623779297
20190715,Storsjövägen 38 A,21.3,1,Unknown,1209,2023500,2019-07-15,95000,147,59.2984593165776,18.0388641357422
2020114,Blackensvägen 57 C,21.4,1,Unknown,1522,2100000,2020-11-04,98131,57,59.2823289185772,17.9935455322266
2022113,Ringvägen 130,21.5,1,Unknown,1398,2175000,2022-11-03,101163,799,59.3082740769846,18.0821228027344
20220222,Tjurbergsgatan 32,21.5,1,Fredrik Flodin,1013,2970000,2022-02-22,138140,901,59.3107273246143,18.0718231201172
2021101,Bygärdesvägen 4 - Accepterat pris!,22,1,Unknown,1452,1225000,2021-10-01,55682,15,59.3800459182768,17.9166412353516
20221119,Hjulstavägen 92,22,1,Unknown,1568,1245000,2022-11-19,56591,72,59.3922844925499,17.9296875
20210325,Bygärdesvägen 4A,22,1,Unknown,1452,1250000,2021-03-25,56818,15,59.3803956531398,17.9166412353516
20220323,Cedergrensvägen 16,22,1,Unknown,2555,1300000,2022-03-23,59091,95,59.3026659892377,18.0017852783203
2021064,Hjulstavägen 92 vån 8,22,1,Unknown,1568,1300000,2021-06-04,59091,72,59.3922844925499,17.9296875
2020062,Bygärdesvägen 4,22,1,Unknown,1424,1330000,2020-06-02,60455,15,59.3800459182768,17.9166412353516
20200910,Sjösabrinken 7A,22,1,Unknown,1233,1450000,2020-09-10,65909,23,59.265489046536,18.0416107177734
20221017,Rörläggarvägen 15,22,1,Malin Klebe,1275,1700000,2022-10-17,77273,32,59.329996684449,17.9489135742188
20220917,Ståltrådsvägen 8,22,1,Hevrê Yildiz,1576,1725000,2022-09-17,78409,120,59.3457544008388,17.9729461669922
2022033,Bagarfruvägen 3,22,1,Unknown,1366,1800000,2022-03-03,81818,31,59.256714981523,18.1075286865234
20220412,Ljusstöparbacken 9A,22,1,Johanna Dahlerus,1343,1800000,2022-04-12,81818,171,59.3145820704793,18.0100250244141
2020055,Eklidsgränd 3C,22,1,Unknown,1202,1990000,2020-05-05,90455,29,59.2352967789688,18.0889892578125
20220121,Ljusstöparbacken 5C,22,1,Nicklas Talvitie,1343,2040000,2022-01-21,92727,184,59.3145820704793,18.0113983154297
20220822,Svandammsvägen 3,22,1,Unknown,1714,2100000,2022-08-22,95455,172,59.3016143698395,18.0155181884766
2019123,Eklidsgränd 5C,22,1,Unknown,1202,2140000,2019-12-03,97273,29,59.2352967789688,18.0889892578125
20220530,Pingstvägen 34,22,1,Unknown,1654,2150000,2022-05-30,97727,93,59.3016143698395,17.9969787597656
20221014,Kammakargatan 18,22,1,Unknown,2150,2250000,2022-10-14,102273,1500,59.3391020344237,18.0622100830078
20220113,Sofielundsplan 57,22,1,Unknown,1418,2250000,2022-01-13,102273,128,59.2889924010356,18.0903625488281
20220324,Ymsenvägen 3,22,1,Unknown,1393,2270000,2022-03-24,103182,484,59.298809892501,18.0677032470703
20221014,Värtavägen 59,22,1,Unknown,1144,2295000,2022-10-14,104318,167,59.3475048070169,18.1020355224609
2022117,Vindragarvägen 4,22,1,Unknown,1394,2360000,2022-11-07,107273,351,59.3184363793632,18.0203247070313
20221213,Ringvägen 158,22,1,Isabelle Sörälv,1100,2425000,2022-12-13,110227,732,59.3096759544436,18.0869293212891
20210218,Anders Reimers Väg 4,22,1,Unknown,1440,2450000,2021-02-18,111364,387,59.3187867494125,18.0258178710938
20221021,Falugatan 19,22,1,Unknown,1374,2475000,2022-10-21,112500,578,59.3443540109297,18.0361175537109
2022105,Sankt Eriksgatan 55 A,22,1,Andreas Tid,1218,2495000,2022-10-05,113409,553,59.3359504586749,18.0326843261719
2021028,Fridhemsgatan 12 B,22,1,Emil Hoffman,925,2495000,2021-02-08,113409,528,59.3306971826286,18.0278778076172
20200921,Krukmakargatan 62,22,1,Unknown,1618,2500000,2020-09-21,113636,590,59.3159836879043,18.0450439453125
20221125,Folkskolegatan 6,22,1,Unknown,2007,2525000,2022-11-25,114773,411,59.317735628431,18.0292510986328
2021106,Rutger Fuchsgatan 8b,22,1,Ingrid Niclason,1031,2550000,2021-10-06,115909,773,59.3068721417361,18.0780029296875
20210115,Sankt Eriksgatan 59A,22,1,Unknown,838,2550000,2021-01-15,115909,551,59.3363006481976,18.0333709716797
20220214,Vindragarvägen 8,22,1,Unknown,1386,2600000,2022-02-14,118182,352,59.3187867494125,18.0196380615234
20220424,Ringvägen 126,22,1,Unknown,1355,2600000,2022-04-24,118182,811,59.3082740769846,18.0814361572266
20220214,Älvkarleövägen 31,22,1,Caroline Hanell,1190,2600000,2022-02-14,118182,190,59.3541555276338,18.0924224853516
2022095,Rutger Fuchsgatan 4a,22,1,Unknown,1165,2600000,2022-09-05,118182,804,59.3072226309661,18.0780029296875
2020101,Tavastgatan 37,22,1,Unknown,1095,2600000,2020-10-01,118182,1500,59.3191371158507,18.0587768554688
2022086,Rödabergsbrinken 16,22,1,Basit Malik,1019,2600000,2022-08-06,118182,605,59.344704113821,18.0374908447266
20190129,Sankt Eriksgatan 12 A,22,1,Unknown,766,2600000,2019-01-29,118182,571,59.329996684449,18.0306243896484
20210114,Ringvägen 127,22,1,Unknown,904,2610000,2021-01-14,118636,845,59.3082740769846,18.0780029296875
2021093,Lundagatan 36 F,22,1,Sofia Kihlman,1266,2630000,2021-09-03,119545,753,59.3187867494125,18.0450439453125
20221031,John Ericssonsgatan 16,22,1,Erin Kiruk,1435,2660000,2022-10-31,120909,733,59.329296171828,18.0381774902344
2021084,Ringvägen 87B ACCEPTERAT PRIS,22,1,Unknown,1249,2700000,2021-08-04,122727,872,59.3086245517671,18.0663299560547
20210427,Samaritgränd 9,22,1,Unknown,1519,2710000,2021-04-27,123182,932,59.3163340832322,18.0539703369141
20220518,Anders Reimers väg 4,22,1,Unknown,1732,2725000,2022-05-18,123864,387,59.3187867494125,18.0258178710938
2021098,Tulegatan 22 - ACCEPTERAT PRIS,22,1,Unknown,1207,2750000,2021-09-08,125000,1300,59.3454043087755,18.0594635009766
20220113,Rindögatan 13,22,1,Unknown,1633,2760000,2022-01-13,125455,272,59.3475048070169,18.0951690673828
20220920,Bondegatan 75 3tr,22,1,Unknown,798,2820000,2022-09-20,128182,368,59.3131803952717,18.0951690673828
2021084,Samaritgränd 6,22,1,Unknown,1166,2825000,2021-08-04,128409,1000,59.3166844749487,18.0546569824219
2022026,Sågargatan 17,22,1,Unknown,1672,2850000,2022-02-06,129545,523,59.3138812400984,18.0917358398438
20201117,Karlbergsvägen 69 A,22,1,Unknown,677,2880000,2020-11-17,130909,500,59.3422533177847,18.0306243896484
20220120,Luntmakargatan 85,22,1,Unknown,1344,2900000,2022-01-20,131818,1400,59.3426034423325,18.0580902099609
20220426,Ringvägen 114,22,1,Unknown,1095,2900000,2022-04-26,131818,816,59.3079235985903,18.0800628662109
20190228,Sibyllegatan 21 A,22,1,Unknown,766,2995000,2019-02-28,136136,1300,59.3352500687998,18.0786895751953
20210113,Upplandsgatan 25 A,22,1,Unknown,929,3100000,2021-01-13,140909,1300,59.3391020344237,18.0512237548828
2022028,Brahegatan 58,22,1,Unknown,1123,3325000,2022-02-08,151136,956,59.3426034423325,18.0800628662109
20220222,Wittstocksgatan 10,22,1,Unknown,678,4000000,2022-02-22,181818,350,59.3380515416625,18.094482421875
2022065,Gimmerstavägen 10,22.4,1,Unknown,1469,1500000,2022-06-05,66964,35,59.2805751537507,18.0361175537109
20221219,Sankt Göransgatan 153,22.5,1,Unknown,1176,2250000,2022-12-19,100000,237,59.3380515416625,18.0141448974609
20210923,Sankt göransgatan 153,22.5,1,Adam Stephani,1069,2400000,2021-09-23,106667,237,59.3380515416625,18.0141448974609
20210416,Lundagatan 44 A,22.5,1,Unknown,1236,2440000,2021-04-16,108444,709,59.3184363793632,18.0443572998047
20220810,Helgalunden 17,22.5,1,Unknown,1508,2500000,2022-08-10,111111,888,59.3096759544436,18.0718231201172
20200527,Roslagsgatan 39 A,22.5,1,Jim Ribe,937,2850000,2020-05-27,126667,1100,59.3489050669945,18.0574035644531
2022029,Åsögatan 174,22.5,1,Unknown,1069,3000000,2022-02-09,133333,787,59.3145820704793,18.0869293212891
20200728,Hjulstavägen 92 vån 7,23,1,Robin Stegeby,1639,1300000,2020-07-28,56522,72,59.3922844925499,17.9296875
2022046,Johannesbergsgatan 3 - ACCEPTERAT PRIS,23,1,Valencia Can,1660,1450000,2022-04-06,63043,124,59.3002121600694,18.0113983154297
20200320,Nockeby Torg 11A,23,1,Unknown,927,1475000,2020-03-20,64130,18,59.329296171828,17.9283142089844
20220519,Follingbogatan 18 - ACCEPTERAT PRIS!,23,1,Emma Bogren,2611,1500000,2022-05-19,65217,15,59.3576553836356,17.9029083251953
2022035,Jämtlandsgatan 80,23,1,Jimmy Armasson,1375,1500000,2022-03-05,65217,34,59.360105068133,17.8726959228516
2022082,Follingbogatan 22 - Accepterat pris!,23,1,Emma Bogren,2611,1550000,2022-08-02,67391,17,59.358005349389,17.9015350341797
2022082,Vittangigatan 10 (1 Tr),23,1,Jimmy Solkarin,1631,1550000,2022-08-02,67391,34,59.3611548787929,17.8726959228516
2021112,Vittangigatan 1 (Våning 7.5),23,1,Jimmy Solkarin,1653,1595000,2021-11-02,69348,31,59.3611548787929,17.8740692138672
2021101,Gamla Huddingevägen 439,23,1,Unknown,1915,1600000,2021-10-01,69565,21,59.274260852307,18.0237579345703
2021029,Emågatan 39,23,1,Walid Mirzazadeh,1933,1620000,2021-02-09,70435,19,59.2781197312153,18.1343078613281
20210915,Vittangigatan 16,23,1,Unknown,1631,1650000,2021-09-15,71739,34,59.3615048084631,17.8720092773438
20210114,Jämtlandsgatan 72 (Vån 1),23,1,Josef Gubrail,1291,1650000,2021-01-14,71739,34,59.3597551240298,17.8726959228516
20200429,Vivstavarvsvägen 165,23,1,Unknown,980,1665000,2020-04-29,72391,31,59.2833811341093,18.0477905273438
20221118,Skönviksvägen 299,23,1,Stefan Disefjord,1738,1750000,2022-11-18,76087,26,59.271804974401,18.0532836914063
20210122,Anna Sandströms gata 12,23,1,Unknown,1263,1790000,2021-01-22,77826,31,59.2875896710241,17.9660797119141
20210422,Gubbkärrsvägen 29S 4tr,23,1,Noomi Unéus,1521,2000000,2021-04-22,86957,11,59.3313976663669,17.9132080078125
20221219,Arvodesvägen 8,23,1,Unknown,2121,2050000,2022-12-19,89130,57,59.2995110335101,17.9825592041016
2022062,Kratsbodavägen 36,23,1,Hevrê Yildiz,1716,2050000,2022-06-02,89130,105,59.3597551240298,17.9550933837891
20210329,Vikstensvägen 46,23,1,Unknown,1525,2090000,2021-03-29,90870,36,59.2823289185772,18.1205749511719
20200424,Körsbärsvägen 6 A,23,1,Unknown,1880,2160000,2020-04-24,93913,1100,59.3489050669945,18.0656433105469
20200528,Skånegatan 105A,23,1,Erica Skoglund,1569,2200000,2020-05-28,95652,700,59.3131803952717,18.0883026123047
20220630,Essinge Brogata 39,23,1,Robin Heimberger,1888,2230000,2022-06-30,96957,123,59.3247424877688,18.0031585693359
20220216,Hägerstensvägen 209,23,1,Alexandra Ekstrand,2202,2240000,2022-02-16,97391,67,59.3047691305045,17.9859924316406
20220930,Körsbärsvägen 6A,23,1,Ronni Mleczkovicz,1736,2250000,2022-09-30,97826,1100,59.3489050669945,18.0656433105469
20220915,Essingestråket 34,23,1,Kerstin Wallin,1554,2300000,2022-09-15,100000,63,59.3212392386477,17.984619140625
20221124,Rindögatan 4,23,1,Mourad Tajiou,1529,2355000,2022-11-24,102391,298,59.3475048070169,18.0937957763672
20210520,Ekhagsvägen 10,23,1,Mathias Dominius,1586,2400000,2021-05-20,104348,29,59.3720010208738,18.0553436279297
20221213,Alströmergatan 32D,23,1,Unknown,1427,2400000,2022-12-13,104348,404,59.3373511951061,18.0258178710938
20210825,Orvar Odds väg 2,23,1,Unknown,1536,2470000,2021-08-25,107391,128,59.3296464299437,17.9997253417969
20210224,Kammakargatan 18 2 tr,23,1,Robin Stegeby,2058,2500000,2021-02-24,108696,1500,59.3391020344237,18.0622100830078
2022077,Krukmakargatan 69,23,1,Unknown,1596,2500000,2022-07-07,108696,581,59.3159836879043,18.0443572998047
20221116,Bergsundsgatan 15,23,1,Unknown,1424,2520000,2022-11-16,109565,392,59.3166844749487,18.0292510986328
2019118,Rutger fuchsgatan 4,23,1,Unknown,1211,2650000,2019-11-08,115217,804,59.3072226309661,18.0780029296875
20220813,Rindögatan 28,23,1,Unknown,1665,2695000,2022-08-13,117174,230,59.3457544008388,18.0979156494141
20221019,Heleneborgsgatan 9C,23,1,Felix Zidaric,1356,2700000,2022-10-19,117391,485,59.3187867494125,18.0374908447266
20220619,Bondegatan 16A,23,1,Unknown,956,2750000,2022-06-19,119565,955,59.3128299674411,18.0780029296875
20220811,Torbjörn Klockares gata 13,23,1,Unknown,1450,2790000,2022-08-11,121304,540,59.3450542131029,18.0340576171875
20200930,Västmannagatan 89A Ög,23,1,Unknown,947,2800000,2020-09-30,121739,887,59.3450542131029,18.0429840087891
20201031,Odengatan 87,23,1,Niklas Jonasson,907,2800000,2020-10-31,121739,1100,59.3415530578605,18.0471038818359
2021078,Folkungagatan 146B,23,1,Unknown,900,2800000,2021-07-08,121739,579,59.3152828864145,18.0910491943359
20221129,Skeppargatan 98,23,1,Unknown,1284,2820000,2022-11-29,122609,462,59.3426034423325,18.0903625488281
20191127,Grevgatan 23A,23,1,Unknown,1426,2825000,2019-11-27,122826,995,59.3341994569121,18.0841827392578
2020092,Skeppargatan 57,23,1,Unknown,734,2840000,2020-09-02,123478,811,59.3380515416625,18.0862426757813
20220518,Västmannagatan 97,23,1,Unknown,1380,2850000,2022-05-18,123913,873,59.3464545741376,18.0429840087891
2021107,Kungsholms Hamnplan 5,23,1,Angelica Hermansson,1063,2850000,2021-10-07,123913,1200,59.3275448270931,18.0457305908203
2020105,Banérgatan 31 A,23,1,Erik Frisk,1017,2850000,2020-10-05,123913,392,59.3363006481976,18.0931091308594
2021082,Upplandsgatan 25A,23,1,Unknown,930,2850000,2021-08-02,123913,1300,59.3391020344237,18.0512237548828
20210915,Maria Skolgata 87,23,1,Unknown,1664,2900000,2021-09-15,126087,805,59.3145820704793,18.0539703369141
20190930,Askrikegatan 17,23,1,Unknown,1011,2900000,2019-09-30,126087,227,59.3443540109297,18.0986022949219
20220513,Sveavägen 122,23,1,Nathalie Jensen,1114,2910000,2022-05-13,126522,1200,59.3450542131029,18.0546569824219
20220224,Furusundsgatan 3,23,1,Unknown,1527,3000000,2022-02-24,130435,240,59.3482049442239,18.0965423583984
20200728,Bergsgatan 19 A,23,1,Unknown,1224,3075000,2020-07-28,133696,1000,59.3296464299437,18.0429840087891
20220623,Norr Mälarstrand 24,23,1,Dilini Panabokke,911,3135000,2022-06-23,136304,1100,59.3268442639256,18.0450439453125
20220728,Västmannagatan 33,23,1,Unknown,925,3300000,2022-07-28,143478,1200,59.3394521914579,18.0498504638672
2021085,Valhallavägen 134,23,1,Unknown,784,3375000,2021-08-05,146739,741,59.3415530578605,18.0862426757813
2022029,Skeppargatan 54,23,1,Unknown,520,3710000,2022-02-09,161304,873,59.3370010164131,18.0855560302734
20220727,Snödroppsgränd 29 (Uteplats),23.2,1,Josef Gubrail,1592,1550000,2022-07-27,66810,8,59.3849418781423,17.8225708007813
20221118,Follingbogatan 18,23.5,1,Linn Holmer,2636,1450000,2022-11-18,61702,15,59.3576553836356,17.9029083251953
2023015,Skanörvägen 9,23.5,1,Julia Larsson,1382,2000000,2023-01-05,85106,101,59.2921483321933,18.1116485595703
20190118,Roslagsgatan 60,23.5,1,Unknown,1315,2570000,2019-01-18,109362,950,59.3506553107631,18.0560302734375
20210624,Nathorstvägen 17,23.6,1,Unknown,1384,2400000,2021-06-24,101695,424,59.2974075671325,18.0896759033203
20221122,Almbygatan 6,24,1,Unknown,1600,1095000,2022-11-22,45625,74,59.3926341011866,17.9310607910156
2022104,Jämtlandsgatan 74,24,1,Unknown,1375,1325000,2022-10-04,55208,34,59.3597551240298,17.8726959228516
2022112,Snödroppsgränd 29,24,1,Nikola Markulic,1592,1400000,2022-11-02,58333,8,59.3849418781423,17.8225708007813
20211119,Jämtlandsgatan 86,24,1,Unknown,1317,1400000,2021-11-19,58333,36,59.3604550086278,17.8713226318359
2022119,Fyrskeppsvägen 45,24,1,Unknown,1525,1450000,2022-11-09,60417,103,59.2879403589468,18.10546875
20210731,Jämtlandsgatan 90,24,1,Unknown,1317,1550000,2021-07-31,64583,36,59.360105068133,17.8713226318359
20210427,Gamla Huddingevägen 439 B,24,1,Unknown,1988,1575000,2021-04-27,65625,21,59.274260852307,18.0237579345703
20220915,Perstorpsvägen 110,24,1,Unknown,1377,1600000,2022-09-15,66667,34,59.2479386568919,18.1047821044922
2019125,Arvid Mörnes väg 48,24,1,Linnea Ragnevad,1614,1610000,2019-12-05,67083,30,59.3478548774249,17.8740692138672
20220321,Jämtlandsgatan 102 (Våning 2),24,1,Nikola Markulic,1375,1620000,2022-03-21,67500,36,59.3608049455145,17.8713226318359
20220323,Jämtlandsgatan 94,24,1,Nikola Markulic,1375,1625000,2022-03-23,67708,36,59.3604550086278,17.8706359863281
20221221,Arvodesvägen 23,24,1,Unknown,1606,1650000,2022-12-21,68750,67,59.2991604648118,17.984619140625
20220218,Holbergsgatan 44,24,1,Andreas Nilsson,1086,1650000,2022-02-18,68750,38,59.3468046553733,17.8871154785156
20220915,Skridskovägen 9A,24,1,Arber Ismajli,1290,1825000,2022-09-15,76042,49,59.2924989731457,17.9756927490234
2022114,Arvodesvägen 6,24,1,Fadi Shamoun,1924,1900000,2022-11-04,79167,57,59.2995110335101,17.9825592041016
2022061,Svärdlångsvägen 45,24,1,Unknown,2491,1950000,2022-06-01,81250,154,59.2991604648118,18.0313110351563
20220817,Hägerstensvägen 191,24,1,Unknown,1873,1950000,2022-08-17,81250,73,59.3044186159904,17.9880523681641
20210319,Sparbanksvägen 10,24,1,Astrid Skogh,1611,1980000,2021-03-19,82500,58,59.2984593165776,17.9825592041016
2022098,Östrandsvägen 70A,24,1,Juan Lagos,1621,1995000,2022-09-08,83125,32,59.2826796607015,18.0471038818359
20210927,Skulptörvägen 3,24,1,Unknown,1699,2040000,2021-09-27,85000,343,59.2960051839625,18.0786895751953
2021038,Konstgjutarvägen 30,24,1,Walid Mirzazadeh,1783,2050000,2021-03-08,85417,244,59.2942521237142,18.0759429931641
20221129,Ljusstöparbacken 7B,24,1,Nicklas Talvitie,1464,2050000,2022-11-29,85417,175,59.3145820704793,18.0107116699219
20220817,Bergsrådsvägen 36,24,1,Unknown,1865,2100000,2022-08-17,87500,25,59.2749624991807,18.12744140625
20220629,Svandammsplan 8,24,1,Milot Ismajli,1743,2100000,2022-06-29,87500,94,59.3005627179305,18.0031585693359
20220811,Hallebergsvägen 26,24,1,Emma Bogren,1368,2100000,2022-08-11,87500,68,59.3380515416625,17.9839324951172
2022029,Sparbanksvägen 14,24,1,Astrid Skogh,1643,2125000,2022-02-09,88542,58,59.2981087370418,17.9825592041016
20220813,Sparfvenfeltsgatan 11,24,1,Marie Bertilsson,1985,2150000,2022-08-13,89583,416,59.2984593165776,18.0917358398438
20210829,Majstångsvägen 11,24,1,Unknown,1647,2220000,2021-08-29,92500,111,59.3037175761259,18.0079650878906
20220919,Gullmarsvägen 8 - Accepterat pris!,24,1,Unknown,1219,2235000,2022-09-19,93125,497,59.2984593165776,18.0773162841797
20221024,Kungsbro Strand 21,24,1,Tolgay Erdinc,2192,2265000,2022-10-24,94375,1400,59.3306971826286,18.050537109375
20211013,Alviksvägen 23 - 0,24,1,Joel Beck-Friis,1281,2300000,2021-10-13,95833,47,59.3313976663669,17.9756927490234
20220826,Smedsbacksgatan 8,24,1,Unknown,1273,2300000,2022-08-26,95833,183,59.3471547329996,18.1006622314453
20220812,Ahlsellvägen 6,24,1,Unknown,1882,2350000,2022-08-12,97917,168,59.3541555276338,18.0972290039063
20220927,Brännkyrkagatan 46,24,1,Unknown,1582,2350000,2022-09-27,97917,1500,59.3191371158507,18.0601501464844
20221027,Furusundsgatan 6,24,1,Unknown,1985,2400000,2022-10-27,100000,248,59.3478548774249,18.0958557128906
20210614,Artemisgatan 15,24,1,Pontus Spelmans,1429,2400000,2021-06-14,100000,111,59.3552055223245,18.0999755859375
20221124,Artemisgatan 13,24,1,Marcus Ljungdahl,1429,2445000,2022-11-24,101875,117,59.3548555277029,18.0999755859375
20220916,Erik Dahlbergsgatan 36,24,1,Mathias Dominius,1383,2495000,2022-09-16,103958,346,59.3440039044291,18.0931091308594
20221221,Sysslomansgatan 26,24,1,Unknown,942,2495000,2022-12-21,103958,462,59.3306971826286,18.0237579345703
20220225,Sjöbjörnsvägen 15B,24,1,Johanna Dahlerus,1522,2500000,2022-02-25,104167,158,59.3163340832322,18.0079650878906
20191127,Anders reimers väg 9,24,1,Unknown,1691,2510000,2019-11-27,104583,366,59.3194874786778,18.0244445800781
20220613,Tegnérgatan 55 C,24,1,Unknown,1638,2550000,2022-06-13,106250,1300,59.3370010164131,18.0512237548828
20220622,Götgatan 96A,24,1,Unknown,611,2550000,2022-06-22,106250,871,59.3093254904965,18.0752563476563
20220912,Skeppargatan 75,24,1,Unknown,1392,2585000,2022-09-12,107708,487,59.3426034423325,18.0896759033203
20200121,Heleneborgsgatan 9 B,24,1,Unknown,1408,2600000,2020-01-21,108333,485,59.3187867494125,18.0374908447266
20221117,Bondegatan 79,24,1,Unknown,1299,2600000,2022-11-17,108333,355,59.3135308194908,18.0958557128906
20221214,Sysslomansgatan 24,24,1,Unknown,1230,2600000,2022-12-14,108333,469,59.3306971826286,18.0244445800781
20210326,Fridhemsplan 25,24,1,Christopher Olsen,1397,2610000,2021-03-26,108750,519,59.3313976663669,18.0271911621094
20220630,Tavastgatan 5,24,1,Unknown,1745,2640000,2022-06-30,110000,1600,59.3198378378938,18.0642700195313
20200826,Olaus petrigatan 10,24,1,Malin Sjöblom,1186,2640000,2020-08-26,110000,397,59.3450542131029,18.0910491943359
20220619,Krukmakargatan 65,24,1,Unknown,1596,2650000,2022-06-19,110417,568,59.3156332889651,18.0443572998047
20191017,Birger jarlsgatan 104 I,24,1,Unknown,1499,2650000,2019-10-17,110417,1200,59.3475048070169,18.0628967285156
20200814,Maria prästgårdsgata 27,24,1,Unknown,1350,2650000,2020-08-14,110417,1100,59.3156332889651,18.0601501464844
20200521,David bagares gata 10,24,1,Christina Björkholmen,1326,2650000,2020-05-21,110417,1500,59.3373511951061,18.0683898925781
20190529,Vikingagatan 3,24,1,Unknown,1338,2670000,2019-05-29,111250,532,59.3405026409025,18.0326843261719
20200515,Sankt Göransgatan 64,24,1,Unknown,1438,2675000,2020-05-15,111458,619,59.3331488125338,18.0326843261719
20220528,Östhammarsgatan 72 A ,24,1,Unknown,1535,2700000,2022-05-28,112500,93,59.3436537943191,18.1130218505859
20220810,Surbrunnsgatan 19,24,1,Astrid Hovensjö Dicander,1337,2700000,2022-08-10,112500,1300,59.3461044892928,18.0615234375
20221012,Högalidsgatan 33,24,1,Unknown,1830,2720000,2022-10-12,113333,406,59.3180860057027,18.028564453125
2022122,Tegnérgatan 55C,24,1,Unknown,1674,2725000,2022-12-02,113542,1300,59.3370010164131,18.0512237548828
20201022,Östhammarsgatan 72,24,1,Unknown,1534,2725000,2020-10-22,113542,93,59.3436537943191,18.1130218505859
2022041,Götgatan 79 (gårdsläge),24,1,Unknown,1591,2750000,2022-04-01,114583,881,59.3107273246143,18.0752563476563
2022127,Högalidsgatan 29,24,1,Robin Nyvall,1431,2750000,2022-12-07,114583,422,59.3184363793632,18.0299377441406
20190523,Hornsgatan 151 3 tr,24,1,Unknown,1794,2800000,2019-05-23,116667,363,59.3149324802526,18.0326843261719
2022121,Lundagatan 50,24,1,Unknown,1382,2800000,2022-12-01,116667,654,59.3184363793632,18.0429840087891
2020094,Valhallavägen 152 B,24,1,Unknown,964,2820000,2020-09-04,117500,411,59.3394521914579,18.0924224853516
20220812,Luntmakargatan 10,24,1,Unknown,2065,2850000,2022-08-12,118750,1600,59.3366508341103,18.0642700195313
20220520,Rådmansgatan 80a,24,2,Unknown,1237,2850000,2022-05-20,118750,1300,59.3387518737797,18.0512237548828
20221214,Blekingegatan 36,24,1,Unknown,1177,2850000,2022-12-14,118750,878,59.3103768715025,18.0745697021484
20210812,Björngårdsgatan 3,24,1,Unknown,1175,2900000,2021-08-12,120833,1400,59.3173852475481,18.0656433105469
20190412,Södermannagatan 41D Ö.G,24,1,Felipe Osorio Åström,1145,2900000,2019-04-12,120833,797,59.3100264147789,18.0828094482422
2022117,Torsgatan 33,24,1,Amanda Treutiger,595,2900000,2022-11-07,120833,708,59.3387518737797,18.03955078125
2021082,Olaus Petrigatan 10,24,1,Unknown,1151,2910000,2021-08-02,121250,397,59.3450542131029,18.0910491943359
20211118,Södermalmstorg 8,24,1,Unknown,1371,2930000,2021-11-18,122083,1700,59.3201881934988,18.0704498291016
2022088,Kungsholmsgatan 13,24,1,Ia Eek,2021,2950000,2022-08-08,122917,1300,59.3306971826286,18.0484771728516
20211124,Sankt Göransgatan 64A 2tr,24,1,Nina Larsson,1438,2950000,2021-11-24,122917,621,59.3331488125338,18.0333709716797
20220220,Erik Dahlbergsgatan 18,24,1,Caroline Hanell,1275,2950000,2022-02-20,122917,438,59.3419031896274,18.0917358398438
20220426,Falugatan 23,24,1,Unknown,1088,2950000,2022-04-26,122917,564,59.344704113821,18.0354309082031
20210824,Sankt eriksgatan 110,24,1,Emillio Afram,531,2950000,2021-08-24,122917,735,59.3454043087755,18.0402374267578
2021113,Hornstulls strand 1,24,1,Unknown,1224,2970000,2021-11-03,123750,357,59.3152828864145,18.0306243896484
20210325,Rådmansgatan 80,24,1,Unknown,1374,3050000,2021-03-25,127083,1300,59.338401709526,18.0512237548828
20220524,Skinnarviksringen 2,24,1,Unknown,1869,3065000,2022-05-24,127708,857,59.3187867494125,18.0477905273438
20221023,Sven Rinmans Gata 4,24,1,Jakob Gustavsson,1770,3100000,2022-10-23,129167,562,59.3289459101019,18.0306243896484
20220719,Roslagsgatan 29A,24,1,Unknown,1507,3100000,2022-07-19,129167,1200,59.3478548774249,18.0574035644531
20220429,Sankt Göransgatan 64 B,24,1,Unknown,1438,3100000,2022-04-29,129167,619,59.3331488125338,18.0326843261719
20210422,Fleminggatan 58,24,1,Unknown,1167,3100000,2021-04-22,129167,515,59.3348998684472,18.0299377441406
20220127,Vanadisvägen 39,24,1,Unknown,1447,3110000,2022-01-27,129583,780,59.3450542131029,18.0409240722656
20220815,Tavastgatan 16,24,1,Unknown,1453,3200000,2022-08-15,133333,1600,59.3198378378938,18.0622100830078
20210811,Valhallavägen 148b,24,1,Unknown,983,3250000,2021-08-11,135417,411,59.3398023448825,18.0924224853516
20220824,Östgötagatan 32,24,1,Roger Thalén,850,3275000,2022-08-24,136458,975,59.3131803952717,18.0773162841797
20220121,Grevgatan 23 B,24,1,Unknown,1586,3350000,2022-01-21,139583,995,59.3341994569121,18.0841827392578
2022124,Sibyllegatan 26,24,1,Simon Hedlund,1025,3350000,2022-12-04,139583,1000,59.3380515416625,18.0814361572266
20221011,Floragatan 7,24,1,Erik Frisk,912,3360000,2022-10-11,140000,1300,59.3419031896274,18.0745697021484
2022046,Nytorgsgatan 33,24,1,Unknown,677,3450000,2022-04-06,143750,891,59.3128299674411,18.0828094482422
20221011,Grevgatan 19,24,1,Martin Sjöman,1047,3650000,2022-10-11,152083,1000,59.3338492457294,18.0841827392578
20190124,Elin Wägners gata 6 A,24.4,1,Unknown,1838,1970000,2019-01-24,80738,38,59.285134754392,17.9729461669922
20220426,Årstavägen 79,24.4,1,Unknown,2001,2300000,2022-04-26,94262,127,59.2977581538934,18.0477905273438
20220818,Erik Dahlbergsgatan 52,24.4,1,Emmy Thorén,1282,2800000,2022-08-18,114754,307,59.3468046553733,18.0937957763672
2022046,Sandfjärdsgatan 25,24.5,1,Unknown,1850,2010000,2022-04-06,82041,74,59.2949533586518,18.0457305908203
20220929,Årstavägen 127A,24.5,2,Unknown,1988,2070000,2022-09-29,84490,218,59.3002121600694,18.0409240722656
20220621,Sandfjärdsgatan 9,24.5,1,Unknown,1850,2100000,2022-06-21,85714,78,59.2956545791383,18.0436706542969
20220824,Årstavägen 81,24.5,1,Unknown,2051,2140000,2022-08-24,87347,141,59.2981087370418,18.0471038818359
20210819,Konstgjutarvägen 40,24.5,1,Unknown,1814,2200000,2021-08-19,89796,270,59.2946027429894,18.0745697021484
20211029,Årstavägen 77,24.5,1,Unknown,2040,2350000,2021-10-29,95918,127,59.2977581538934,18.0477905273438
2019072,Sankt Göransgatan 153 9tr,24.5,1,Tolgay Erdinc,1536,2520000,2019-07-02,102857,237,59.3380515416625,18.0141448974609
20221215,Lundagatan 36B,24.5,1,Unknown,1374,2600000,2022-12-15,106122,807,59.3187867494125,18.0464172363281
20220826,Brantingsgatan 40,24.5,1,Emmy Thorén,1423,2770000,2022-08-26,113061,250,59.3450542131029,18.0972290039063
20221124,Styrmansgatan 16B,24.5,1,Amanda Marti de Luque,1827,3250000,2022-11-24,132653,910,59.3334990309366,18.0862426757813
20210622,Långsjövägen 130,24.6,1,Unknown,1729,1750000,2021-06-22,71138,17,59.2668926872706,17.9784393310547
20220824,Bergsundsgatan 12,24.9,1,Unknown,1320,2700000,2022-08-24,108434,390,59.3170348630541,18.028564453125
2021016,Ankarstocksvägen 13,25,1,Rebecca Bloss,1951,1700000,2021-01-06,68000,11,59.3674530608246,17.9296875
20220412,Doktor Widerströms gata 56,25,1,Natalia Hernandez,1672,1700000,2022-04-12,68000,26,59.2865375855761,17.9571533203125
20210914,Ålgrytebacken 11A,25,1,Unknown,1618,1700000,2021-09-14,68000,12,59.298809892501,17.9310607910156
20190222,Orrspelsvägen 11,25,1,Unknown,1419,1700000,2019-02-22,68000,26,59.3205385454928,17.95166015625
20210417,Skebokvarnsvägen 87,25,1,Unknown,2048,1760000,2021-04-17,70400,24,59.2693489193916,18.0409240722656
20211129,Torsbygatan 34,25,1,Unknown,1400,1790000,2021-11-29,71600,40,59.2430229279572,18.0972290039063
2022077,Lina Sandells plan 2,25,1,Natalia Hernandez,1936,1800000,2022-07-07,72000,27,59.2840825930629,17.9598999023438
2021061,Gubbkärrsvägen 29I,25,1,Rebecca Bloss,1653,1800000,2021-06-01,72000,10,59.3313976663669,17.9152679443359
2022097,Bäckvägen 114,25,1,Unknown,2155,1810000,2022-09-07,72400,69,59.3016143698395,17.9866790771484
20200129,Ålgrytebacken 11 A,25,1,Unknown,1618,1825000,2020-01-29,73000,12,59.298809892501,17.9310607910156
20211221,Älvsåkersgränd 55,25,2,Paulina Despotovic,1797,1850000,2021-12-21,74000,38,59.2893430745055,18.0299377441406
20221024,Kratsbodavägen 55,25,1,Tobias Willhardt,1299,1850000,2022-10-24,74000,101,59.3615048084631,17.9537200927734
20221125,Lina Sandells Plan 2,25,1,Unknown,1936,1860000,2022-11-25,74400,27,59.2840825930629,17.9598999023438
2019115,Edsbergsgränd 8,25,1,Unknown,1207,1895000,2019-11-05,75800,28,59.3019649132512,17.9537200927734
20220131,Doktor Widerströms gata 14,25,1,Tobias Franzén,1908,1900000,2022-01-31,76000,25,59.2844333171194,17.9578399658203
2022014,Kallforsvägen 28,25,1,Unknown,1724,1900000,2022-01-04,76000,24,59.2714541202429,18.0464172363281
20190311,Skönviksvägen 271,25,1,Unknown,1684,1900000,2019-03-11,76000,30,59.2714541202429,18.0553436279297
20220615,Doktor Widerströms gata 68,25,1,Unknown,1672,1900000,2022-06-15,76000,26,59.2868882843388,17.9578399658203
20221013,Boktryckarvägen 7,25,1,Unknown,1555,1900000,2022-10-13,76000,73,59.3009132721792,17.9887390136719
20220328,Skeppstavägen 33,25,1,Unknown,1483,1900000,2022-03-28,76000,28,59.2668926872706,18.0580902099609
20220531,Granbacken 20,25,1,Linn Johansson,1922,1950000,2022-05-31,78000,91,59.3440039044291,17.962646484375
2021064,Doktor Widerströms Gata 14,25,1,Unknown,1908,1960000,2021-06-04,78400,25,59.2844333171194,17.9578399658203
20190514,Doktor Widerströms Gata 46,25,1,Unknown,1908,1960000,2019-05-14,78400,26,59.2858361772109,17.9564666748047
20220126,Doktor widerströms gata 66,25,1,Unknown,1671,1975000,2022-01-26,79000,26,59.2868882843388,17.9578399658203
20210119,Doktor Widerströms gata 58,25,1,Unknown,1672,1985000,2021-01-19,79400,26,59.2865375855761,17.9571533203125
20210421,Mejselvägen 42,25,1,Unknown,1912,2000000,2021-04-21,80000,79,59.2939015008262,17.9887390136719
20200213,Doktor widerströms gata 42,25,1,Unknown,1908,2000000,2020-02-13,80000,25,59.2854854676082,17.9571533203125
2022097,Konstgjutarvägen 14,25,1,Unknown,1719,2000000,2022-09-07,80000,286,59.2949533586518,18.0786895751953
20220930,Nockeby Torg 8A,25,1,Unknown,906,2000000,2022-09-30,80000,18,59.3296464299437,17.9290008544922
2019074,Tyska Bottens Väg 33,25,1,Jenny Nordstrand,1279,2030000,2019-07-04,81200,12,59.3306971826286,17.9111480712891
20221124,Bäckvägen 120,25,1,Unknown,2076,2050000,2022-11-24,82000,65,59.3012638228155,17.9853057861328
2022013,Doktor Widerströms gata 72,25,1,David Hugoh,1672,2050000,2022-01-03,82000,26,59.287238979488,17.9578399658203
2021071,Kratsbodavägen 55- accepterat pris,25,1,Emma Andersson Hejll,1203,2050000,2021-07-01,82000,101,59.3615048084631,17.9537200927734
2020091,Sicklingsvägen 3,25,1,Elisabeth Strandenborg,1624,2060000,2020-09-01,82400,22,59.2626815915554,18.0807495117188
20220710,Fyrskeppsvägen 33,25,1,Kalle Gudmundsson,1588,2070000,2022-07-10,82800,102,59.2882910432563,18.1034088134766
20190219,Ivar Vidfamnes gata 11,25,1,Hanna Ringström,1854,2100000,2019-02-19,84000,74,59.3072226309661,17.9866790771484
2022085,Doktor widerströms gata 56,25,1,Unknown,1672,2100000,2022-08-05,84000,26,59.2865375855761,17.9571533203125
20220818,Atterbomsvägen 30,25,1,Unknown,1650,2100000,2022-08-18,84000,169,59.3271945473146,18.0093383789063
20221019,Fågelkärrsvägen 2D,25,1,Unknown,1405,2100000,2022-10-19,84000,122,59.287238979488,18.0869293212891
20210916,Ulricehamnsvägen 4,25,1,Unknown,1396,2100000,2021-09-16,84000,120,59.2949533586518,18.1061553955078
20190830,Storsjövägen 34 A,25,1,Unknown,1406,2125000,2019-08-30,85000,148,59.2984593165776,18.03955078125
2022066,Hägerstensvägen 211,25,1,Unknown,1807,2150000,2022-06-06,86000,67,59.3044186159904,17.9859924316406
2022113,Ekensbergsvägen 118,25,1,Nicklas Talvitie,1394,2150000,2022-11-03,86000,116,59.3152828864145,17.9942321777344
2022128,Vattenledningsvägen 33,25,1,Jonas Lindström,1770,2175000,2022-12-08,87000,127,59.3033670507753,18.0113983154297
2022113,Järnlundsvägen 22,25,1,Unknown,2157,2200000,2022-11-03,88000,111,59.2974075671325,18.0368041992188
20221020,Blåsutvägen 7,25,1,Unknown,1801,2220000,2022-10-20,88800,215,59.2932002442117,18.0876159667969
20210917,Svandammsvägen 21 A,25,1,Alexandra Ekstrand,1806,2300000,2021-09-17,92000,124,59.3012638228155,18.0113983154297
20211015,Boktryckarvägen 5,25,1,Unknown,1545,2300000,2021-10-15,92000,73,59.3009132721792,17.9887390136719
20220511,Malmövägen 10,25,1,Walid Mirzazadeh,1658,2310000,2022-05-11,92400,112,59.2942521237142,18.1082153320313
2022061,Mössebergsvägen 17,25,1,Jenny Nordstrand Maelum,1622,2350000,2022-06-01,94000,60,59.3359504586749,17.9832458496094
20220317,Sicklingsvägen 5,25,1,Unknown,1624,2365000,2022-03-17,94600,22,59.2623306434156,18.0807495117188
20210923,Erik Segersälls väg 13,25,1,Unknown,1564,2400000,2021-09-23,96000,107,59.3068721417361,18.0004119873047
2022129,Timotejgatan 4,25,1,Unknown,1535,2400000,2022-12-09,96000,846,59.3075731165842,18.0663299560547
2020032,Erik segersälls väg 13,25,1,Unknown,1470,2400000,2020-03-02,96000,107,59.3068721417361,18.0004119873047
20200914,Tussmötevägen 120D,25,1,Unknown,1689,2420000,2020-09-14,96800,57,59.2788212985804,18.0683898925781
2022045,Bäckaskiftsvägen 11A,25,2,Jeanette Giörtz,1310,2450000,2022-04-05,98000,25,59.2753133171963,18.0498504638672
20220913,Malmgårdsvägen 18,25,1,Unknown,1454,2475000,2022-09-13,99000,636,59.3096759544436,18.0889892578125
2022065,Långholmsgatan 13,25,1,Unknown,1446,2480000,2022-06-05,99200,416,59.3170348630541,18.0333709716797
20210921,Ninni Kronbergs gata 10,25,1,Unknown,1537,2550000,2021-09-21,102000,497,59.3485550074137,18.0347442626953
20210827,Ola hanssonsgatan 1,25,1,Unknown,1376,2550000,2021-08-27,102000,131,59.3334990309366,18.0004119873047
20190219,Långholmsgatan 11B,25,1,Unknown,1647,2600000,2019-02-19,104000,416,59.3170348630541,18.0333709716797
20221012,Kocksgatan 52,25,1,Unknown,1065,2600000,2022-10-12,104000,918,59.3145820704793,18.08349609375
20221125,Eriksdalsgatan 17,25,1,Unknown,1535,2615000,2022-11-25,104600,779,59.3065216488942,18.0663299560547
20221011,Långholmsgatan 11B - Gårdshus,25,1,Unknown,1647,2630000,2022-10-11,105200,416,59.3170348630541,18.0333709716797
20210714,Ninni Kronbergs Gata 10,25,1,Unknown,1537,2650000,2021-07-14,106000,497,59.3485550074137,18.0347442626953
20220817,Brännkyrkagatan 92 A,25,1,Unknown,1960,2685000,2022-08-17,107400,806,59.3180860057027,18.0484771728516
2022106,Slipgatan 14,25,1,Joe Maatouk,1848,2700000,2022-10-06,108000,377,59.3166844749487,18.0278778076172
20220914,Högalidsgatan 31,25,1,Unknown,1823,2700000,2022-09-14,108000,417,59.3180860057027,18.0292510986328
2022122,Hornsgatan 180,25,1,Unknown,1822,2700000,2022-12-02,108000,374,59.3152828864145,18.0326843261719
2021064,Blecktornsstigen 16,25,1,Unknown,1540,2700000,2021-06-04,108000,710,59.3075731165842,18.0869293212891
2022097,Heleneborgsgatan 9c,25,1,Unknown,1475,2700000,2022-09-07,108000,485,59.3187867494125,18.0374908447266
20211020,Långholmsgatan 13a,25,1,Unknown,1446,2715000,2021-10-20,108600,408,59.3170348630541,18.0340576171875
20220831,Banérgatan 25A,25,1,Mathias Dominius,605,2730000,2022-08-31,109200,392,59.3363006481976,18.0931091308594
20221010,Olaus Petrigatan 2,25,1,Unknown,1006,2750000,2022-10-10,110000,408,59.3457544008388,18.0903625488281
2019123,Maria prästgårdsgata 4,25,1,Unknown,1205,2760000,2019-12-03,110400,1300,59.3166844749487,18.0663299560547
20220916,Blanchegatan 18,25,1,Unknown,1597,2770000,2022-09-16,110800,240,59.3433036805996,18.0986022949219
2022114,Dalagatan 70 A,25,1,Unknown,1340,2775000,2022-11-04,111000,889,59.3443540109297,18.0429840087891
20221130,Tavastgatan 31,25,1,Unknown,761,2800000,2022-11-30,112000,1500,59.3194874786778,18.0587768554688
20220826,Hornsgatan 151,25,1,Unknown,1745,2850000,2022-08-26,114000,363,59.3149324802526,18.0326843261719
2022052,Alströmergatan 32 U,25,1,Unknown,1397,2900000,2022-05-02,116000,412,59.3366508341103,18.0265045166016
20220916,Kocksgatan 23,25,1,Unknown,1005,2900000,2022-09-16,116000,1000,59.3142316570946,18.0780029296875
2020043,Erik Dahlbergsallén 9,25,1,Erik Frisk,931,2900000,2020-04-03,116000,548,59.3398023448825,18.0896759033203
20210421,Norrtullsgatan 24,25,1,Unknown,803,2900000,2021-04-21,116000,989,59.3478548774249,18.0464172363281
2022129,Tomtebogatan 51,25,1,Felicia Ahlquist,1307,2910000,2022-12-09,116400,432,59.3422533177847,18.0271911621094
20221117,Sankt Eriksgatan 103,25,1,Linnea Mott,894,2920000,2022-11-17,116800,662,59.3440039044291,18.0388641357422
20221124,Lundagatan 36D,25,1,Unknown,1413,2950000,2022-11-24,118000,828,59.3191371158507,18.0464172363281
20220731,Lidnersplan 16,25,1,Unknown,1384,2950000,2022-07-31,118000,119,59.3356002655423,17.9976654052734
20200915,Gumshornsgatan 11,25,1,Alexander König,1503,2975000,2020-09-15,119000,561,59.3363006481976,18.0896759033203
2021111,Sveavägen 121,25,1,Linnéa Lindblad,1589,3000000,2021-11-01,120000,1100,59.3471547329996,18.0512237548828
20220620,Bellmansgatan 34,25,1,Unknown,1475,3000000,2022-06-20,120000,1400,59.3170348630541,18.0663299560547
20211217,Hallandsgatan 32,25,1,Unknown,1455,3000000,2021-12-17,120000,895,59.3103768715025,18.0690765380859
20210622,Bondegatan 1E,25,1,Unknown,1246,3000000,2021-06-22,120000,978,59.3124795359989,18.0752563476563
20211029,Hornsgatan 92,25,1,Unknown,1015,3000000,2021-10-29,120000,944,59.317735628431,18.0525970458984
20210825,Sankt eriksgatan 109,25,1,Emillio Afram,654,3025000,2021-08-25,121000,699,59.3454043087755,18.03955078125
20210116,Fridhemsgatan 53 3 tr,25,1,Unknown,1365,3030000,2021-01-16,121200,529,59.3366508341103,18.0319976806641
2022057,David Bagares gata 12a,25,1,Unknown,1347,3055000,2022-05-07,122200,1500,59.3373511951061,18.0683898925781
20210916,Heleneborgsgatan 9 C,25,1,Unknown,1475,3100000,2021-09-16,124000,485,59.3187867494125,18.0374908447266
2022046,Fridhemsgatan 12,25,1,Filip Savic,1200,3100000,2022-04-06,124000,528,59.3306971826286,18.0278778076172
2020027,Swedenborgsgatan 4A,25,1,CarlChristian Rounick,950,3100000,2020-02-07,124000,1300,59.3170348630541,18.0628967285156
20221212,Mosebacke torg 14B,25,1,Unknown,1379,3125000,2022-12-12,125000,1400,59.3173852475481,18.0738830566406
20220119,Fredmansgatan 7,25,1,Erik Wikingskiöld,1329,3125000,2022-01-19,125000,1400,59.3166844749487,18.0670166015625
20200110,Pilgatan 19 C,25,1,Unknown,1250,3125000,2020-01-10,125000,781,59.3296464299437,18.0388641357422
20221017,Storgatan 56A,25,1,Emilia Aspelin,1163,3175000,2022-10-17,127000,417,59.3324483648976,18.094482421875
20220119,Banérgatan 25 A,25,1,Andreas Gunnarsson,604,3200000,2022-01-19,128000,392,59.3363006481976,18.0931091308594
20210824,Södermannagatan 41C,25,1,Unknown,1145,3210000,2021-08-24,128400,797,59.3100264147789,18.0828094482422
20200714,Sibyllegatan 50 A,25,1,Unknown,962,3210000,2020-07-14,128400,899,59.3408527834981,18.0841827392578
2019066,Banérgatan 7,25,1,Jonathan Lundin,660,3250000,2019-06-06,130000,559,59.3327985905208,18.0910491943359
2022038,Frejgatan 57,25,1,Unknown,1803,3260000,2022-03-08,130400,1200,59.3457544008388,18.0512237548828
20210730,Banérgatan 25 3 tr ög,25,1,Unknown,704,3300000,2021-07-30,132000,363,59.3359504586749,18.0937957763672
20221018,Valfrid Palmgrens Gata 1,25,1,Unknown,733,3320000,2022-10-18,132800,631,59.3485550074137,18.03955078125
20220331,Observatoriegatan 22,25,1,Adam Behrer,679,3450000,2022-03-31,138000,1100,59.3398023448825,18.0477905273438
2022114,Valfrid palmgrens gata 1,25,1,Ronni Mleczkovicz,736,3500000,2022-11-04,140000,631,59.3485550074137,18.03955078125
20210825,Nybrogatan 50,25,1,Filip Ullhag,561,3500000,2021-08-25,140000,1000,59.3391020344237,18.0807495117188
20210113,Grevgatan 20,25,1,Jonatan Viklund,1200,3525000,2021-01-13,141000,1000,59.3334990309366,18.0848693847656
20220915,Kindstugatan 10,25,1,Unknown,1527,3600000,2022-09-15,144000,1800,59.3247424877688,18.072509765625
20220114,Tulegatan 27,25,1,Unknown,680,3650000,2022-01-14,146000,1300,59.3440039044291,18.0601501464844
2022032,Nybrogatan 66,25,1,Unknown,1332,4000000,2022-03-02,160000,936,59.3412029224841,18.0828094482422
20220215,Grevgatan 47B,25,1,Sofia Elfsson da Costa,754,4275000,2022-02-15,171000,829,59.3366508341103,18.0862426757813
2022046,Frejgatan 75,25.1,1,Unknown,941,3700000,2022-04-06,147410,1100,59.344704113821,18.0471038818359
20210924,Norr Mälarstrand 88B,25.3,1,Unknown,1135,2495000,2021-09-24,98617,511,59.3296464299437,18.0271911621094
20220619,Norr Mälarstrand 88,25.3,1,Unknown,1225,3000000,2022-06-19,118577,510,59.329296171828,18.0271911621094
2022091,Lorensbergsgatan 3,25.4,1,Unknown,1556,2775000,2022-09-01,109252,440,59.3194874786778,18.0340576171875
2022058,Karlbergsvägen 66A,25.4,1,Unknown,1285,3660000,2022-05-08,144094,532,59.3426034423325,18.0326843261719
20221013,Hälsingegatan 31,25.5,1,Unknown,1200,3050000,2022-10-13,119608,786,59.3440039044291,18.0409240722656
20220812,Kista Gårdsväg 16,25.6,1,Unknown,1783,1495000,2022-08-12,58398,81,59.407314407984,17.9441070556641
20221112,Lorensbergsgatan 3A,25.6,1,Unknown,1751,2650000,2022-11-12,103516,440,59.3194874786778,18.0340576171875
2022034,Svärdlångsvägen 19A - Accepterat pris!,25.8,1,Unknown,2470,1830000,2022-03-04,70930,211,59.3016143698395,18.0368041992188
20220825,Duvedsvägen 5 (0154 / 0913),26,1,Micaela Rebel,1863,1320000,2022-08-25,50769,33,59.3664034449979,17.8726959228516
20220815,Kirunagatan 54,26,1,Unknown,1600,1395000,2022-08-15,53654,32,59.3657036830743,17.8623962402344
20210916,Kirunagatan 74 (Vån 1),26,1,Josef Gubrail,1561,1395000,2021-09-16,53654,31,59.366753320548,17.8623962402344
2022078,Snödroppsgränd 26 (uteplats),26,1,Jimmy Solkarin,1762,1600000,2022-07-08,61538,8,59.3845921901667,17.8232574462891
20201221,Kirunagatan 76,26,1,Yosef J. Lahlou,1561,1600000,2020-12-21,61538,31,59.366753320548,17.8623962402344
2022104,Kolbäcksgränd 15,26,1,Walid Mirzazadeh,2121,1750000,2022-10-04,67308,13,59.2770673530633,18.1404876708984
20221018,Rusthållarvägen 189,26,1,Henrik Ivansson,2427,1800000,2022-10-18,69231,13,59.2728575151892,18.1370544433594
2021098,Gubbkärrsvägen 29G 1tr,26,1,Noomi Unéus,1719,1800000,2021-09-08,69231,9,59.3313976663669,17.9159545898438
20220210,Skebokvarnsvägen 283,26,1,Unknown,1534,1800000,2022-02-10,69231,22,59.2637344142848,18.0361175537109
20210818,Skebokvarnsvägen 306,26,1,Unknown,1617,1825000,2021-08-18,70192,19,59.2626815915554,18.0340576171875
20220920,Kolbäcksgränd 29,26,1,Walid Mirzazadeh,2121,1830000,2022-09-20,70385,13,59.2760149423853,18.1411743164063
2021039,Skebokvarnsvägen 304,26,1,Unknown,1617,1835000,2021-03-09,70577,20,59.2626815915554,18.0333709716797
20220924,Skebokvarnsvägen 289,26,1,Unknown,1628,1840000,2022-09-24,70769,22,59.2633834769899,18.0361175537109
20220822,Skebokvarnsvägen 294,26,1,Unknown,1650,1850000,2022-08-22,71154,19,59.2633834769899,18.0340576171875
20210818,Skebokvarnsvägen 289 2tr,26,1,Unknown,1636,1850000,2021-08-18,71154,22,59.2633834769899,18.0361175537109
20221123,Ellen Keys gata 45,26,1,Unknown,1553,1850000,2022-11-23,71154,31,59.2868882843388,17.9660797119141
20210415,Doktor Widerströms gata 18,26,1,Unknown,1958,1870000,2021-04-15,71923,25,59.2847840375625,17.9578399658203
20220618,Doktor Widerströms gata 26,26,1,Unknown,1958,1900000,2022-06-18,73077,25,59.2847840375625,17.9571533203125
2022104,Kubbegatan 19,26,1,Unknown,1410,1910000,2022-10-04,73462,12,59.2563639719249,18.1123352050781
20201118,Arvid mörnes väg 40,26,1,Linn Holmer,2266,1950000,2020-11-18,75000,30,59.3482049442239,17.8740692138672
20210923,Kolbäcksgränd 19,26,1,Unknown,2100,1950000,2021-09-23,75000,13,59.2770673530633,18.1411743164063
20220519,Doktor Widerströms gata 70,26,1,Unknown,1726,1970000,2022-05-19,75769,26,59.287238979488,17.9578399658203
20220513,Doktor Widerströms gata 74,26,1,Unknown,1726,1970000,2022-05-13,75769,26,59.287238979488,17.9585266113281
20220413,Kolbäcksgränd 5,26,1,Unknown,2100,2000000,2022-04-13,76923,13,59.2774181493946,18.1391143798828
2021047,Kolbäcksgränd 28,26,1,Sebastian Andersson,2079,2000000,2021-04-07,76923,13,59.2767165531179,18.1398010253906
2022016,Rusthållarvägen 187,26,1,Unknown,2427,2030000,2022-01-06,78077,13,59.2725066718741,18.1370544433594
20220120,Gubbkärrsvägen 29I 1tr,26,1,Noomi Unéus,1719,2050000,2022-01-20,78846,10,59.3313976663669,17.9152679443359
20220217,Östrandsvägen 68 3tr,26,1,Unknown,1703,2050000,2022-02-17,78846,32,59.2830303992122,18.0477905273438
20221124,Sköntorpsvägen 59,26,1,Unknown,1682,2080000,2022-11-24,80000,281,59.298809892501,18.0587768554688
2022095,Kolbäcksgränd 25,26,1,Rebecka Svensk,2121,2100000,2022-09-05,80769,13,59.2763657495586,18.1411743164063
20210425,Gubbkärrsvägen 29s,26,1,Mathias Odehag,1719,2100000,2021-04-25,80769,11,59.3313976663669,17.9132080078125
20210422,Emågatan 40A,26,1,Unknown,1475,2100000,2021-04-22,80769,23,59.2777689421119,18.1322479248047
20220224,Svartågatan 59,26,1,Unknown,2419,2140000,2022-02-24,82308,13,59.2739100234489,18.1398010253906
20220421,Kolbäcksgränd 13,26,1,julia larsson,2100,2150000,2022-04-21,82692,13,59.2770673530633,18.1404876708984
20221128,Hägervägen 1,26,1,Unknown,1415,2195000,2022-11-28,84423,44,59.2753133171963,18.0828094482422
20221220,Bäckvägen 149,26,1,Unknown,2263,2200000,2022-12-20,84615,65,59.3009132721792,17.984619140625
20210416,Järnlundsvägen 2,26,1,Unknown,2196,2200000,2021-04-16,84615,120,59.2981087370418,18.0340576171875
20210311,Ivar Vidfamnes Gata 23,26,1,Alexandra Ekstrand,1730,2200000,2021-03-11,84615,70,59.3075731165842,17.9859924316406
20211119,Sköntorpsvägen 65,26,1,Unknown,1665,2200000,2021-11-19,84615,281,59.298809892501,18.0587768554688
20210721,Nybohovsgränd 52,26,1,Unknown,1199,2200000,2021-07-21,84615,213,59.3079235985903,18.0203247070313
2020123,Gubbkärrsvägen 29R,26,1,Jenny Nordstrand,1719,2210000,2020-12-03,85000,11,59.3313976663669,17.9138946533203
20210716,Bäckaskiftsvägen 70,26,1,Unknown,1758,2225000,2021-07-16,85577,25,59.274260852307,18.050537109375
20210819,Ivar Vidfamnes Gata 19,26,1,Unknown,1498,2230000,2021-08-19,85769,70,59.3075731165842,17.9859924316406
20220927,Barrstigen 24,26,1,Rebecca Bloss,932,2240000,2022-09-27,86154,35,59.3370010164131,17.9598999023438
2022056,Ivar Vidfamnes Gata 25,26,1,Unknown,1895,2250000,2022-05-06,86538,65,59.3079235985903,17.9853057861328
20221111,Palandergatan 17A,26,1,Unknown,1789,2250000,2022-11-11,86538,388,59.2967063827728,18.0889892578125
2021113,Hägervägen 7,26,1,My Lundberg,1415,2280000,2021-11-03,87692,44,59.2749624991807,18.0828094482422
20210929,Guldsmedsvägen 9,26,1,Pontus Palmén,1827,2300000,2021-09-29,88462,127,59.2882910432563,18.0903625488281
20210115,Ivar Vidfamnes Gata 21,26,1,Unknown,1895,2375000,2021-01-15,91346,70,59.3075731165842,17.9859924316406
20220112,Valborgsmässovägen 48,26,1,Unknown,1803,2400000,2022-01-12,92308,90,59.2991604648118,17.9962921142578
20221021,Smedsbacksgatan 14,26,1,Emmy Thorén,1796,2400000,2022-10-21,92308,185,59.3475048070169,18.0999755859375
2022026,Valborgsmässovägen 20 C,26,1,Unknown,1575,2500000,2022-02-06,96154,97,59.3009132721792,17.9997253417969
20210928,Norrskogsvägen 21,26,1,Emma Andersson Hejll,1573,2520000,2021-09-28,96923,105,59.322290251298,17.9928588867188
2020121,Ola hanssonsgatan 3,26,1,Julia Larsson,1790,2585000,2020-12-01,99423,131,59.3334990309366,18.0004119873047
20220714,Lindvallsplan 10,26,1,Unknown,1338,2600000,2022-07-14,100000,373,59.3159836879043,18.0292510986328
2021127,Tegelbruksvägen 8A,26,1,Fadi Shamoun,989,2600000,2021-12-07,100000,142,59.3026659892377,18.0141448974609
20220315,Ekhagsvägen 12,26,2,Unknown,1603,2610000,2022-03-15,100385,31,59.3723508387017,18.0560302734375
20210527,Lilla Aspuddsvägen 4,26,1,Unknown,1615,2650000,2021-05-27,101923,103,59.3058206523744,17.9997253417969
20221025,Gyllenborgsgatan 13,26,1,Jakob Gustavsson,1467,2650000,2022-10-25,101923,309,59.3327985905208,18.0155181884766
20220330,Strålgatan 45,26,1,Jakob Gustavsson,1718,2670000,2022-03-30,102692,125,59.3243921791053,18.0031585693359
20221130,Rindögatan 12 - 4 tr!,26,1,Unknown,1922,2675000,2022-11-30,102885,276,59.3468046553733,18.0951690673828
20220930,Katarina bangata 59C,26,1,Unknown,1696,2680000,2022-09-30,103077,677,59.3093254904965,18.0883026123047
20221014,Pontonjärgatan 18,26,1,Vilhelm Åman,1570,2800000,2022-10-14,107692,651,59.3289459101019,18.0354309082031
2021097,Ture Nermans gränd 4,26,1,Daniel Berg,634,2800000,2021-09-07,107692,565,59.3296464299437,18.0306243896484
20220817,Klippgatan 14D,26,1,Unknown,1351,2815000,2022-08-17,108269,720,59.3142316570946,18.0883026123047
20220816,Ola Hanssonsgatan 7,26,1,Sanna Rihm,1790,2830000,2022-08-16,108846,132,59.3338492457294,18.0004119873047
2022104,Sandelsgatan 40,26,1,Caroline Hanell,1405,2860000,2022-10-04,110000,334,59.3436537943191,18.0937957763672
2022091,Timmermansgatan 44,26,1,Nathalie Jensen,1579,2865000,2022-09-01,110192,1100,59.3149324802526,18.0615234375
20210722,Tjurbergsgatan 34,26,1,Unknown,1607,2880000,2021-07-22,110769,901,59.3107273246143,18.072509765625
20220928,Helgagatan 30,26,1,Unknown,1604,2900000,2022-09-28,111538,895,59.3103768715025,18.0690765380859
20211117,Alströmergatan 32 K,26,1,Jakob Jakobsson,1534,2900000,2021-11-17,111538,409,59.3373511951061,18.0265045166016
20210514,Sankt Göransgatan 64 A,26,1,Unknown,1438,2900000,2021-05-14,111538,621,59.3331488125338,18.0333709716797
20221013,Torsgatan 68,26,1,Unknown,1160,2900000,2022-10-13,111538,566,59.3443540109297,18.0354309082031
20210110,Torsgatan 57,26,1,Unknown,1106,2900000,2021-01-10,111538,569,59.3429535632708,18.0354309082031
20221118,Rindögatan 30,26,1,Rasmus Logärd,2151,2925000,2022-11-18,112500,234,59.3454043087755,18.0979156494141
20221130,Sankt eriksgatan 101A,26,1,Amanda Treutiger,1279,2925000,2022-11-30,112500,662,59.3440039044291,18.0388641357422
20221118,Valhallavägen 67,26,1,Unknown,1324,2950000,2022-11-18,113462,1200,59.3464545741376,18.0697631835938
20221021,Sankt Eriksgatan 92,26,1,Unknown,1203,2950000,2022-10-21,113462,627,59.3415530578605,18.0381774902344
20221125,Kvarngatan 5,26,1,Unknown,1948,2995000,2022-11-25,115192,1400,59.3173852475481,18.0677032470703
20210416,Norr mälarstrand 90,26,1,Unknown,1793,3000000,2021-04-16,115385,488,59.3296464299437,18.0265045166016
20210618,Torsgatan 40A ö.g.,26,1,Unknown,1594,3000000,2021-06-18,115385,664,59.3408527834981,18.0388641357422
2022119,Sankt Göransgatan 72,26,1,Unknown,550,3000000,2022-11-09,115385,563,59.3334990309366,18.0306243896484
2022092,Vulcanusgatan 9,26,1,Amanda Treutiger,1549,3050000,2022-09-02,117308,614,59.3387518737797,18.0374908447266
2021098,Sankt Eriksgatan 101A,26,1,Unknown,1421,3050000,2021-09-08,117308,662,59.3440039044291,18.0388641357422
20220114,Tegnérgatan 57B,26,1,Unknown,1462,3060000,2022-01-14,117692,1200,59.3370010164131,18.050537109375
20221013,Storgatan 32,26,2,Unknown,1717,3100000,2022-10-13,119231,754,59.3341994569121,18.0876159667969
20210317,Askrikegatan 9,26,1,Unknown,1449,3120000,2021-03-17,120000,262,59.344704113821,18.0965423583984
20220329,Bondegatan 3 D,26,1,Unknown,2253,3125000,2022-03-29,120192,960,59.3124795359989,18.0766296386719
2022069,Östhammarsgatan 72A,26,1,Ronni Mleczkovicz,1662,3125000,2022-06-09,120192,93,59.3436537943191,18.1130218505859
2022016,Rutger Fuchsgatan 8A,26,1,Unknown,1286,3135000,2022-01-06,120577,773,59.3068721417361,18.0780029296875
20220428,Norr Mälarstrand 52,26,1,Niklas Jonasson,2587,3200000,2022-04-28,123077,741,59.3275448270931,18.0381774902344
2022098,Grevgatan 51,26,1,Unknown,1394,3200000,2022-09-08,123077,827,59.3370010164131,18.0862426757813
20220330,Högalidsgatan 23,26,1,Unknown,2184,3220000,2022-03-30,123846,422,59.3180860057027,18.0313110351563
20201210,Birkagatan 31 A,26,1,Ylva Berglund,1274,3230000,2020-12-10,124231,570,59.3419031896274,18.0354309082031
2022022,Bondegatan 3D,26,1,Unknown,2079,3250000,2022-02-02,125000,960,59.3124795359989,18.0766296386719
20220823,Bergsgatan 19A,26,1,Unknown,1377,3250000,2022-08-23,125000,1000,59.3296464299437,18.0429840087891
20210331,Skeppargatan 56,26,1,Jonatan Viklund,1031,3250000,2021-03-31,125000,820,59.3377013701892,18.0862426757813
20220329,Askrikegatan 7,26,1,Unknown,1319,3300000,2022-03-29,126923,268,59.3450542131029,18.0958557128906
20201111,Birkagatan 31A,26,1,Jan Borild,1274,3300000,2020-11-11,126923,570,59.3419031896274,18.0354309082031
20210911,Drottninghusgränd 2,26,1,Unknown,1312,3350000,2021-09-11,128846,1500,59.338401709526,18.0670166015625
2021012,Gästrikegatan 9B,26,1,Unknown,1505,3375000,2021-01-02,129808,702,59.3412029224841,18.03955078125
20220120,Torsgatan 40A ög,26,1,Unknown,1594,3400000,2022-01-20,130769,664,59.3408527834981,18.0388641357422
2021112,Gästrikegatan 9b,26,1,Unknown,1434,3400000,2021-11-02,130769,702,59.3412029224841,18.03955078125
20210519,Sankt Eriksgatan 71B,26,1,Unknown,1138,3400000,2021-05-19,130769,575,59.3387518737797,18.0354309082031
20210414,Roslagsgatan 42,26,2,Helene Darin,1524,3430000,2021-04-14,131923,1100,59.3489050669945,18.0574035644531
20220313,Grev Turegatan 86,26,1,Amanda Marti de Luque,1010,3530000,2022-03-13,135769,893,59.3426034423325,18.0814361572266
20220915,Brahegatan 12,26,1,Marc Blumenthal,1197,3535000,2022-09-15,135962,1300,59.3377013701892,18.0759429931641
20220118,Karlbergsvägen 69A,26,1,Unknown,833,3560000,2022-01-18,136923,500,59.3422533177847,18.0306243896484
20211223,Artillerigatan 26,26,1,Caroline Hanell,1112,3640000,2021-12-23,140000,1100,59.3345496644847,18.0814361572266
20220514,Skeppargatan 28,26,1,Alexander König,1554,3690000,2022-05-14,141923,1000,59.3345496644847,18.08349609375
20220927,Styrmansgatan 16a,26,1,Veronica Andersson,1888,3700000,2022-09-27,142308,910,59.3334990309366,18.0862426757813
20220811,Köpmangatan 4,26,1,Unknown,1738,3800000,2022-08-11,146154,1900,59.3250927928216,18.0731964111328
20210414,Sibyllegatan 22,26,1,Linnéa Lindblad,756,3810000,2021-04-14,146538,1000,59.3377013701892,18.0814361572266
20220330,Grev Turegatan 62,26,2,Unknown,1092,4000000,2022-03-30,153846,1100,59.3405026409025,18.0800628662109
20220118,Rörstrandsgatan 48A,26,2,Alice Edin,1517,4240000,2022-01-18,163077,438,59.3415530578605,18.0278778076172
20220622,Siljansvägen 38,26.5,1,Unknown,1933,1600000,2022-06-22,60377,130,59.2977581538934,18.0471038818359
2021033,Pilgrimsvägen 54C,26.5,1,Kelly Ståhl,1683,2450000,2021-03-03,92453,102,59.3054701486965,18.0017852783203
20220525,Essinge Brogata 27,26.5,1,Pontus Spelmans,1545,2500000,2022-05-25,94340,139,59.3247424877688,18.0052185058594
20201027,Bergsunds strand 9,26.5,1,Unknown,1479,2700000,2020-10-27,101887,366,59.3173852475481,18.0265045166016
20220831,Tomtebogatan 42,26.5,1,Unknown,1524,2750000,2022-08-31,103774,439,59.3422533177847,18.0278778076172
20221125,Sveavägen 97. 0,26.5,1,Veronica Andersson,1329,2750000,2022-11-25,103774,1200,59.3457544008388,18.0525970458984
2021071,Heleneborgsgatan 9 A,26.5,1,Unknown,1478,2900000,2021-07-01,109434,496,59.3191371158507,18.0374908447266
20211021,Jungfrugatan 22A,26.5,2,Unknown,1657,4200000,2021-10-21,158491,997,59.3373511951061,18.0828094482422
20220919,Sundbyvägen 70,26.7,1,Jimmy Solkarin,1875,1360000,2022-09-19,50936,20,59.3681527866702,17.9145812988281
20221130,Snödroppsgränd 29 uteplats (2:1003),27,1,Jimmy Solkarin,1696,1500000,2022-11-30,55556,8,59.3849418781423,17.8225708007813
2022125,Snödroppsgränd 27 (1:1104),27,1,Jimmy Solkarin,1696,1600000,2022-12-05,59259,8,59.3849418781423,17.8225708007813
20210624,Östersundsgatan 7 (Uteplats),27,1,Josef Gubrail,1365,1600000,2021-06-24,59259,39,59.3545055294727,17.8836822509766
20220828,Skebokvarnsvägen 251,27,1,Unknown,1657,1650000,2022-08-28,61111,21,59.26478720448,18.0354309082031
20210712,Skebokvarnsvägen 273 2 tr,27,1,Unknown,1625,1675000,2021-07-12,62037,21,59.2637344142848,18.0354309082031
2021111,Bjursätragatan 96,27,1,Unknown,2030,1700000,2021-11-01,62963,16,59.2528536770925,18.0258178710938
2022022,Kristallvägen 139,27,1,Unknown,1676,1700000,2022-02-02,62963,90,59.2900444106058,18.0038452148438
20221220,Anna Sandströms gata 20,27,1,Unknown,1558,1720000,2022-12-20,63704,32,59.2875896710241,17.9667663574219
20210611,Fågelstavägen 3,27,1,Unknown,1810,1750000,2021-06-11,64815,22,59.2696997952363,18.0484771728516
2022084,Hagelstavägen 12,27,1,Johanna Hallgren,2092,1800000,2022-08-04,66667,61,59.3587052700704,17.9489135742188
20201216,Bjursätragatan 116,27,1,Zandra Aspholm,1954,1800000,2020-12-16,66667,16,59.2535557649834,18.0258178710938
2022015,Skeppstavägen 23,27,1,Unknown,1601,1800000,2022-01-05,66667,28,59.2672435884175,18.0574035644531
2022075,Lina Sandells plan 24,27,1,Unknown,2083,1820000,2022-07-05,67407,27,59.2833811341093,17.9598999023438
20221018,Voxnegränd 24,27,1,Elin Norberg,2557,1825000,2022-10-18,67593,21,59.27320835489,18.1322479248047
20220812,Tisdagsvägen 13,27,1,Michelle Almby,2079,1825000,2022-08-12,67593,44,59.257767988625,18.0896759033203
20221118,Askängsbacken 5,27,1,Fredrik Palmbäck,1928,1850000,2022-11-18,68519,113,59.3611548787929,17.9585266113281
20211111,Skebokvarnsvägen 121,27,1,Kelly Ståhl,1548,1850000,2021-11-11,68519,24,59.2675944859497,18.0374908447266
20210818,Lina Sandells Plan 20,27,1,Daniel Holmqvist,2083,1900000,2021-08-18,70370,27,59.2833811341093,17.9592132568359
20210415,Ellen keys gata 85,27,1,Tidor Ablahad,1839,1935000,2021-04-15,71667,32,59.2840825930629,17.9667663574219
2021032,Anna Sandströms gata 22,27,1,Christofer Svensson,1484,1935000,2021-03-02,71667,32,59.2875896710241,17.9667663574219
20221230,Tisdagsvägen 12,27,1,Juan Lagos,2079,1950000,2022-12-30,72222,43,59.257767988625,18.0889892578125
2021039,Elias Lönnrots väg 5A,27,1,Malin Klebe,1504,1950000,2021-03-09,72222,34,59.3492551229662,17.8795623779297
20210218,Lina Sandells plan 26,27,1,Natalia Hernandez,2083,1955000,2021-02-18,72407,28,59.2837318653929,17.9605865478516
2022085,Askängsbacken 3,27,1,Arman Davarzan,1928,1975000,2022-08-05,73148,113,59.3608049455145,17.9585266113281
20211125,Kristallvägen 135,27,1,Unknown,1676,2000000,2021-11-25,74074,89,59.2903950732364,18.0038452148438
2021084,Skeppstavägen 21,27,1,Unknown,1601,2000000,2021-08-04,74074,28,59.2675944859497,18.0567169189453
20221219,Axvallsvägen 49B,27,1,Benjamin Frejvall,1301,2000000,2022-12-19,74074,101,59.2939015008262,18.1150817871094
20220320,Rusthållarvägen 151,27,1,Sebastian Andersson,2575,2010000,2022-03-20,74444,17,59.27320835489,18.1349945068359
20201113,Elsa Borgs gata 68,27,1,Natalia Hernandez,2072,2020000,2020-11-13,74815,30,59.2830303992122,17.9647064208984
20220713,Sandfjärdsgatan 29,27,1,Unknown,2081,2050000,2022-07-13,75926,71,59.2949533586518,18.0471038818359
20220427,Svartågatan 65,27,1,Sebastian Andersson,2461,2075000,2022-04-27,76852,13,59.2735591909766,18.1391143798828
20210113,Rusthållarvägen 147,27,1,Unknown,2486,2080000,2021-01-13,77037,15,59.27320835489,18.1356811523438
20221117,Kratsbodavägen 50A,27,1,Johanna Hallgren,1754,2085000,2022-11-17,77222,105,59.3611548787929,17.9550933837891
20210711,Kristallvägen 143,27,1,Unknown,1676,2100000,2021-07-11,77778,90,59.2900444106058,18.0038452148438
20210128,Doktor Widerströms Gata 56,27,1,Unknown,1750,2110000,2021-01-28,78148,26,59.2865375855761,17.9571533203125
20210326,Elsa borgs gata 68,27,1,Daniel Sjödin,2072,2140000,2021-03-26,79259,30,59.2830303992122,17.9647064208984
2022027,Voxnegränd 12,27,1,julia larsson,2557,2220000,2022-02-07,82222,21,59.2739100234489,18.1322479248047
2022089,Slätbaksvägen 16,27,1,Unknown,2014,2220000,2022-08-09,82222,209,59.296355785174,18.0601501464844
20201217,Kärrtorpsvägen 93,27,1,Unknown,2093,2225000,2020-12-17,82407,38,59.2826796607015,18.1137084960938
2022112,Kratsbodavägen 50B,27,1,Johanna Hallgren,1754,2235000,2022-11-02,82778,103,59.3611548787929,17.9544067382813
20221221,Cedergrensvägen 4,27,1,Unknown,1785,2250000,2022-12-21,83333,92,59.3033670507753,18.0024719238281
2022122,Gullmarsvägen 27,27,1,Unknown,1758,2300000,2022-12-02,85185,486,59.2984593165776,18.0718231201172
20221030,Kungsbro Strand 17,27,1,Jakob Gustavsson,2302,2430000,2022-10-30,90000,1500,59.329996684449,18.0512237548828
20210811,Blekingegatan 38A,27,2,Unknown,1357,2430000,2021-08-11,90000,872,59.3103768715025,18.0759429931641
20210923,Bondegatan 3B,27,1,Unknown,2357,2520000,2021-09-23,93333,960,59.3124795359989,18.0766296386719
2022095,Valhallavägen 69,27,1,Unknown,2057,2525000,2022-09-05,93519,1200,59.3464545741376,18.0697631835938
20221028,Sigfridsvägen 11,27,1,Johanna Dahlerus,1674,2550000,2022-10-28,94444,108,59.3072226309661,18.0031585693359
2020122,Vallfartsvägen 6,27,1,Unknown,1563,2560000,2020-12-02,94815,102,59.3051196414065,18.0010986328125
20221010,Bäckvägen 131,27,1,Unknown,1752,2595000,2022-10-10,96111,74,59.3009132721792,17.9880523681641
20210527,Heleneborgsgatan 6 C,27,1,Unknown,1870,2600000,2021-05-27,96296,690,59.3198378378938,18.0429840087891
2021101,Sjöbjörnsvägen 10,27,1,William Kajo,1699,2620000,2021-10-01,97037,197,59.3170348630541,18.0113983154297
2021084,Ringvägen 155A,27,1,Unknown,1548,2700000,2021-08-04,100000,792,59.3096759544436,18.0841827392578
20221013,Åsögatan 190,27,1,Unknown,1393,2700000,2022-10-13,100000,553,59.3145820704793,18.0910491943359
2022069,Kristinehovsgatan 5 B,27,1,Unknown,1906,2730000,2022-06-09,101111,617,59.3180860057027,18.0422973632813
20221010,Sankt eriksgatan 39,27,1,Nathalie Jensen,790,2800000,2022-10-10,103704,584,59.3338492457294,18.0319976806641
20210331,Thorildsplan 2. 1,27,1,Unknown,1467,2825000,2021-03-31,104630,318,59.3324483648976,18.0155181884766
2021118,Wivalliusgatan 11,27,1,Deisam Sulayman,1663,2850000,2021-11-08,105556,310,59.3254430942637,18.0148315429688
20211118,Hallandsgatan 50,27,1,Unknown,1608,2860000,2021-11-18,105926,923,59.3110777741145,18.0718231201172
20220610,Brantingsgatan 51,27,1,Richard Wall,1722,2870000,2022-06-10,106296,201,59.3443540109297,18.1006622314453
20220914,Gyllenborgsgatan 18,27,1,Unknown,1517,2875000,2022-09-14,106481,334,59.3327985905208,18.0162048339844
2022103,Torbjörn Klockares Gata 25 Accepterat pris.,27,1,Elenore Lövgren,1280,2899000,2022-10-03,107370,579,59.3454043087755,18.0361175537109
20220913,Heleneborgsgatan 6C,27,1,Unknown,1898,2900000,2022-09-13,107407,690,59.3198378378938,18.0429840087891
20220222,Wivalliusgatan 21,27,1,Unknown,1649,2900000,2022-02-22,107407,240,59.3257933920951,18.0127716064453
20220817,Vulcanusgatan 8,27,1,Unknown,1023,2900000,2022-08-17,107407,614,59.3387518737797,18.0374908447266
20211019,John Bergs Plan 3,27,1,Nina Larsson,1837,2910000,2021-10-19,107778,370,59.3366508341103,18.0223846435547
2022099,Polhemsgatan 38,27,1,Unknown,1605,2920000,2022-09-09,108148,747,59.3331488125338,18.0381774902344
20211213,John bergs plan 3,27,1,Beatrice Olsson,1801,2950000,2021-12-13,109259,370,59.3366508341103,18.0223846435547
20221129,Kattgränd 3A (Högst upp),27,1,Unknown,1508,2950000,2022-11-29,109259,1400,59.3198378378938,18.0574035644531
20221212,Atlasgatan 13,27,1,Amanda Treutiger,1200,2950000,2022-12-12,109259,614,59.338401709526,18.0374908447266
2022076,Anders Reimers väg 9,27,1,Unknown,2057,3000000,2022-07-06,111111,366,59.3194874786778,18.0244445800781
2022055,Birger Jarlsgatan 104N,27,1,Unknown,2016,3000000,2022-05-05,111111,1200,59.3478548774249,18.0622100830078
2021097,Hornsgatan 90,27,1,Unknown,565,3000000,2021-09-07,111111,995,59.317735628431,18.0532836914063
20210611,Dalagatan 39B,27,1,Unknown,1260,3035000,2021-06-11,112407,817,59.344704113821,18.0416107177734
20221217,Pipersgatan 20,27,1,Jakob Gustavsson,2754,3100000,2022-12-17,114815,1300,59.3310474263029,18.0464172363281
2022077,Lilla Nygatan 11,27,1,Unknown,2468,3100000,2022-07-07,114815,1900,59.3240418668311,18.0683898925781
20220127,Bondegatan 3 B,27,1,Unknown,2412,3100000,2022-01-27,114815,960,59.3124795359989,18.0766296386719
20221012,Robert Almströmsgatan 3 - Högst upp i huset!,27,1,Felicia Ahlquist,1698,3100000,2022-10-12,114815,535,59.3387518737797,18.0333709716797
20220111,Valhallavägen 61,27,1,Gustav Enhörning,1403,3100000,2022-01-11,114815,1200,59.3468046553733,18.0683898925781
2022098,Östgötagatan 66,27,2,Unknown,743,3145000,2022-09-08,116481,837,59.3086245517671,18.0793762207031
20221110,Bråvallagatan 8,27,1,Felicia Ahlquist,2157,3150000,2022-11-10,116667,567,59.3387518737797,18.0347442626953
20210610,Hagagatan 52A,27,1,Unknown,1771,3150000,2021-06-10,116667,989,59.3485550074137,18.0491638183594
20220222,Thorildsplan 2,27,1,Julia Larsson,1467,3150000,2022-02-22,116667,318,59.3324483648976,18.0155181884766
20220825,Kammakargatan 64A,27,1,Unknown,2213,3200000,2022-08-25,118519,1400,59.3370010164131,18.0532836914063
20221026,Hornsgatan 43,27,1,Unknown,1804,3200000,2022-10-26,118519,1400,59.3180860057027,18.0587768554688
20220330,Långholmsgatan 18,27,1,Unknown,1723,3275000,2022-03-30,121296,423,59.3173852475481,18.0326843261719
20210913,Hantverkargatan 12,27,1,Unknown,724,3400000,2021-09-13,125926,1200,59.3285956447654,18.0457305908203
20221116,Luntmakargatan 63,27,1,Unknown,1032,3420000,2022-11-16,126667,1500,59.3405026409025,18.0601501464844
20210413,Torsgatan 52A / Karlbergsvägen 50,27,1,Joakim Andersson,1146,3440000,2021-04-13,127407,599,59.3429535632708,18.0368041992188
20221115,Gästrikegatan 11A,27,1,Robin Nyvall,990,3445000,2022-11-15,127593,664,59.3412029224841,18.0388641357422
20211210,Karlbergsvägen 51,27,1,Unknown,1491,3500000,2021-12-10,129630,562,59.3422533177847,18.0347442626953
20211011,Västmannagatan 82A,27,1,Ronni Mleczkovicz,1261,3500000,2021-10-11,129630,968,59.3454043087755,18.0443572998047
20220513,Torsgatan 52A,27,1,Sofia Elfsson da Costa,983,3500000,2022-05-13,129630,599,59.3429535632708,18.0368041992188
20210725,Riddargatan 43A,27,1,Robin Nyvall,976,3500000,2021-07-25,129630,836,59.3327985905208,18.0876159667969
20211020,Roslagsgatan 48,27,1,Unknown,636,3620000,2021-10-20,134074,1100,59.3492551229662,18.0574035644531
2021083,Nybrogatan 62A,27,1,Sofia Elfsson da Costa,895,3650000,2021-08-03,135185,982,59.3408527834981,18.0821228027344
20210826,Gästrikegatan 3 A,27,1,Unknown,1527,3675000,2021-08-26,136111,702,59.3405026409025,18.03955078125
20220328,Rådmansgatan 35,27,1,Unknown,876,3825000,2022-03-28,141667,1500,59.3408527834981,18.0615234375
2021127,Sibyllegatan 5,27,1,Jonatan Viklund,895,3900000,2021-12-07,144444,1300,59.3338492457294,18.0780029296875
20220316,Iversonsgatan 6 BV,27,2,Caroline Hanell,1087,4200000,2022-03-16,155556,1500,59.3394521914579,18.0690765380859
20220111,Hagagatan 8A,27,2,Unknown,1280,4250000,2022-01-11,157407,1200,59.344704113821,18.0525970458984
2021029,Sundbyvägen 70 lgh 1005,27.2,1,Jimmy Solkarin,1908,1375000,2021-02-09,50551,20,59.3681527866702,17.9145812988281
2021097,Elias Lönnrots Väg 3a,27.4,1,Alexandra Tyledal,1608,2050000,2021-09-07,74818,35,59.3496051753289,17.8802490234375
20221116,Olshammarsgatan 79,27.5,1,Unknown,2093,1560000,2022-11-16,56727,12,59.2595229281556,18.0086517333984
20220920,Olshammarsgatan 85,27.5,1,Unknown,2093,1595000,2022-09-20,58000,12,59.2591719474799,18.0093383789063
20220330,Olshammarsgatan 77,27.5,1,Unknown,1989,1650000,2022-03-30,60000,13,59.2595229281556,18.0100250244141
20220119,Nykroppagatan 21,27.5,1,Selma Fazlic,2063,1700000,2022-01-19,61818,37,59.2426717773402,18.0821228027344
20220427,Olshammarsgatan 83,27.5,1,Jeanette Giörtz,2093,1750000,2022-04-27,63636,12,59.2591719474799,18.0093383789063
20201125,Västertorpsvägen 20 B,27.5,1,Kim Ekholm,1585,1950000,2020-11-25,70909,46,59.2907457322538,17.9736328125
20221031,Klippgatan 14i,27.5,1,Unknown,1634,2650000,2022-10-31,96364,720,59.3142316570946,18.0883026123047
2022095,Hornsgatan 88,27.5,1,Unknown,971,2685000,2022-09-05,97636,995,59.317735628431,18.0532836914063
20221125,Klippgatan 14G,27.5,1,Unknown,1588,2820000,2022-11-25,102545,720,59.3142316570946,18.0883026123047
2021022,Gyllenborgsgatan 18 Lgh 1101,27.5,1,Unknown,1517,2950000,2021-02-02,107273,334,59.3327985905208,18.0162048339844
2022122,Sankt Eriksgatan 85D,27.5,1,Oskar Vilgotsson,758,3050000,2022-12-02,110909,582,59.3408527834981,18.0361175537109
20210511,Strykerskevägen 1,27.7,1,Kerstin Wallin,1131,2700000,2021-05-11,97473,95,59.3233412314503,17.9901123046875
20221217,Liljeörnsgatan 70,28,1,Martina Hultkrantz,1777,1400000,2022-12-17,50000,14,59.3709515457455,17.8459167480469
20210921,Liljeörnsgränd 1,28,1,Unknown,1777,1450000,2021-09-21,51786,14,59.3713013743957,17.8466033935547
20220118,Johannelundsvägen 30 - Accepterat pris!,28,1,Linn Holmer,1949,1500000,2022-01-18,53571,17,59.3629044910623,17.9090881347656
20221229,Björketorpsvägen 13,28,1,Anton Bjärkenrud,1850,1500000,2022-12-29,53571,41,59.3552055223245,17.8898620605469
20220322,Liljeörnsgatan 72,28,1,Micaela Rebel,1777,1550000,2022-03-22,55357,14,59.3709515457455,17.8459167480469
20211229,Johannelundsvägen 30,28,1,Unknown,1949,1600000,2021-12-29,57143,17,59.3629044910623,17.9090881347656
20221229,Björketorpsvägen 11,28,1,Isak Oddsson,1850,1675000,2022-12-29,59821,42,59.3552055223245,17.8891754150391
2021064,Johannelundsvägen 20,28,1,Linn Holmer,1949,1685000,2021-06-04,60179,17,59.3632544026919,17.90771484375
2022106,Elsa Borgs gata 44,28,1,Natalia Hernandez,2029,1750000,2022-10-06,62500,29,59.2823289185772,17.9640197753906
2021015,Finn Malmgrens väg 63A,28,1,Unknown,2206,1850000,2021-01-05,66071,107,59.2960051839625,18.1109619140625
2022083,Elin Wägners Gata 31,28,1,Unknown,1726,1850000,2022-08-03,66071,35,59.2858361772109,17.9701995849609
20220916,Bårdgränd 16,28,1,Emma Andersson Hejll,1431,1860000,2022-09-16,66429,19,59.338401709526,17.9296875
20210526,Bårdgränd 14,28,1,Julia Hast,1431,1890000,2021-05-26,67500,19,59.3387518737797,17.9296875
2022098,Fyrskeppsvägen 124,28,1,Unknown,1988,1900000,2022-09-08,67857,72,59.287238979488,18.1130218505859
2021058,Mockasinvägen 26 - Accepterat pris!,28,1,Unknown,1487,1900000,2021-05-08,67857,47,59.2833811341093,18.0162048339844
2021107,Elin wägners gata 19,28,1,Unknown,1855,1950000,2021-10-07,69643,36,59.2847840375625,17.9708862304688
20220220,Elin Wägners gata 19,28,1,Unknown,1855,1950000,2022-02-20,69643,36,59.2847840375625,17.9708862304688
20210517,Elin Wägners Gata 25,28,1,Thomas Kihlman,1855,1950000,2021-05-17,69643,36,59.285134754392,17.9708862304688
2022063,Ekensbergsvägen 76,28,1,Signe Caroline Sjövall,3143,2000000,2022-06-03,71429,102,59.3145820704793,17.9921722412109
20211028,Tyska Bottens Väg 61,28,1,Josef Khan,2475,2000000,2021-10-28,71429,15,59.3338492457294,17.9042816162109
20220420,Ellen Keys Gata 95A,28,1,Tobias Franzén,1899,2000000,2022-04-20,71429,30,59.2837318653929,17.9653930664063
2021057,Kristallvägen 111C,28,1,Lawan Farag,1702,2000000,2021-05-07,71429,90,59.2907457322538,18.0024719238281
20221115,Ekensbergsvägen 12,28,1,Alexander von Satzger,2901,2100000,2022-11-15,75000,105,59.3145820704793,17.9928588867188
20201022,Abrahamsbergsvägen 51,28,1,Angelica Liljeqvist,1422,2100000,2020-10-22,75000,33,59.3331488125338,17.9496002197266
2021022,Ekensbergsvägen 54,28,1,Unknown,2911,2125000,2021-02-02,75893,105,59.3145820704793,17.9928588867188
20220317,Klintbacken 3,28,1,Marcus Hemrin,2089,2160000,2022-03-17,77143,105,59.3597551240298,17.9557800292969
20220812,Kratsbodavägen 55 (B) Accepterat pris,28,1,Andreas Pettersson,1347,2160000,2022-08-12,77143,101,59.3615048084631,17.9537200927734
20220525,Ekensbergsvägen 80,28,2,Signe Caroline Sjövall,3143,2200000,2022-05-25,78571,102,59.3145820704793,17.9921722412109
20220827,Bryggvägen 4,28,1,Signe Caroline Sjövall,1667,2200000,2022-08-27,78571,138,59.3156332889651,17.9997253417969
2022044,Svartviksvägen 4A,28,1,Rebecca Bloss,1587,2200000,2022-04-04,78571,93,59.3345496644847,17.9901123046875
20220622,Bårdgränd 12,28,1,Julia Hast,1431,2200000,2022-06-22,78571,19,59.3387518737797,17.9296875
2022117,Terrängvägen 16,28,1,Unknown,1418,2200000,2022-11-07,78571,42,59.2956545791383,17.9722595214844
2021067,Möckelvägen 17,28,1,Unknown,1521,2225000,2021-06-07,79464,191,59.2946027429894,18.0622100830078
20210226,Kratsbodavägen 55b,28,1,Mathias Odehag,1347,2225000,2021-02-26,79464,101,59.3615048084631,17.9537200927734
20211218,Grindstuvägen 34,28,1,Erica Holmberg,1269,2250000,2021-12-18,80357,59,59.3377013701892,17.9750061035156
20221112,Johannesbergsgatan 3,28,1,Unknown,2151,2260000,2022-11-12,80714,124,59.3002121600694,18.0113983154297
2021034,Bolmensvägen 16,28,1,Unknown,1561,2260000,2021-03-04,80714,204,59.2949533586518,18.0622100830078
20220423,Bokbindarvägen 26,28,1,Rebecca Steene,1934,2300000,2022-04-23,82143,74,59.3016143698395,17.9901123046875
20210121,Bildhuggarvägen 23,28,1,Unknown,1758,2300000,2021-01-21,82143,269,59.2946027429894,18.0752563476563
20220715,Skärmarbrinksvägen 1,28,1,William Westrup,1738,2350000,2022-07-15,83929,211,59.2928496104852,18.0889892578125
20220329,Blommensbergsvägen 190,28,1,Unknown,1488,2350000,2022-03-29,83929,87,59.3061711524403,17.9935455322266
2022047,Bokbindarvägen 28,28,1,Unknown,1934,2395000,2022-04-07,85536,74,59.3019649132512,17.9894256591797
20221110,Smedsbacksgatan 7,28,1,Unknown,1798,2400000,2022-11-10,85714,203,59.3478548774249,18.0986022949219
2021121,Bäckvägen 112,28,1,Unknown,2344,2410000,2021-12-01,86071,69,59.3016143698395,17.9866790771484
20210331,Ekensbergsvägen 42,28,1,Signe Caroline Sjövall,2911,2425000,2021-03-31,86607,114,59.3149324802526,17.9935455322266
20220519,Wahlbergsgatan 12,28,2,Unknown,1689,2435000,2022-05-19,86964,254,59.2984593165776,18.0986022949219
2021047,Ekensbergsvägen 40,28,1,Signe Caroline Sjövall,2772,2450000,2021-04-07,87500,114,59.3149324802526,17.9935455322266
2022062,Katarina Bangata 67,28,1,Unknown,1578,2450000,2022-06-02,87500,677,59.3093254904965,18.0883026123047
20210722,Ekensbergsvägen 24,28,1,Unknown,2687,2500000,2021-07-22,89286,114,59.3149324802526,17.9935455322266
2021097,Ekensbergsvägen 10,28,1,Alexander von Satzger,2687,2520000,2021-09-07,90000,105,59.3145820704793,17.9928588867188
2021098,Ekensbergsvägen 20,28,1,Alexander von Satzger,2687,2525000,2021-09-08,90179,114,59.3152828864145,17.9928588867188
20210915,Ekensbergsvägen 8,28,1,David Hugoh,2687,2525000,2021-09-15,90179,105,59.3145820704793,17.9928588867188
2022096,Marmorgatan 11 2tr,28,1,Unknown,1955,2530000,2022-09-06,90357,512,59.3107273246143,18.0539703369141
20221012,Erik Dahlbergsgatan 41,28,1,Unknown,1549,2550000,2022-10-12,91071,359,59.3443540109297,18.0924224853516
2022123,Smedsbacksgatan 32,28,1,Unknown,1758,2625000,2022-12-03,93750,200,59.3489050669945,18.0986022949219
20221028,Alströmergatan 32I,28,1,Unknown,1667,2695000,2022-10-28,96250,407,59.3366508341103,18.0258178710938
20221215,Ola Hanssonsgatan 3,28,1,Julia Larsson,1902,2700000,2022-12-15,96429,131,59.3334990309366,18.0004119873047
2022023,Gullmarsvägen 83,28,1,Unknown,1614,2700000,2022-02-03,96429,569,59.3002121600694,18.0670166015625
20220620,Idungatan 6,28,1,Amanda Treutiger,1153,2750000,2022-06-20,98214,995,59.3482049442239,18.0471038818359
20210316,Alströmergatan 32 E,28,1,Unknown,1524,2762500,2021-03-16,98661,404,59.3373511951061,18.0258178710938
2022108,Möregatan 7,28,1,Basit Malik,2317,2795000,2022-10-08,99821,975,59.3117786622799,18.0704498291016
2021028,Katarina bangata 69,28,1,Unknown,1578,2810000,2021-02-08,100357,637,59.3089750229377,18.0889892578125
20210114,Kristinehovsgatan 5 A,28,1,Unknown,2014,2830000,2021-01-14,101071,617,59.3180860057027,18.0422973632813
2021091,Möregatan 7. 0,28,1,Unknown,2285,2840000,2021-09-01,101429,975,59.3117786622799,18.0704498291016
2022114,Lundagatan 48A,28,1,Felix Zidaric,1541,2850000,2022-11-04,101786,693,59.3187867494125,18.0436706542969
20220622,Heleneborgsgatan 6B,28,1,Unknown,1899,2900000,2022-06-22,103571,690,59.3198378378938,18.0429840087891
20221117,Katarina bangata 67B,28,1,Unknown,1578,2900000,2022-11-17,103571,637,59.3089750229377,18.0889892578125
20210423,Norrtullsgatan 30 vån 5,28,1,Unknown,1538,2910000,2021-04-23,103929,919,59.3489050669945,18.0457305908203
2021128,Katarina Bangata 67A,28,1,Unknown,1578,2940000,2021-12-08,105000,677,59.3093254904965,18.0883026123047
20221117,Folkskolegatan 12,28,1,Unknown,2092,2950000,2022-11-17,105357,400,59.3170348630541,18.0299377441406
20221031,Alströmergatan 32 N,28,1,Nina Larsson,1642,2975000,2022-10-31,106250,411,59.3370010164131,18.0265045166016
20210823,Alströmergatan 32L - Högst upp,28,1,Unknown,1461,2975000,2021-08-23,106250,409,59.3373511951061,18.0265045166016
20210524,Heleneborgsgatan 25 b,28,1,Fanny Hedman,1912,3000000,2021-05-24,107143,441,59.3187867494125,18.0333709716797
2022086,Bondegatan 22,28,1,Unknown,1643,3000000,2022-08-06,107143,938,59.3128299674411,18.0793762207031
20220413,Smedsbacksgatan 10,28,1,Emmy Thorén,1613,3000000,2022-04-13,107143,181,59.3475048070169,18.1006622314453
2022113,Roslagsgatan 51,28,1,Linus Wallinder,1560,3000000,2022-11-03,107143,1000,59.3499552240826,18.0560302734375
20220322,Wennerbergsgatan 6 B,28,1,Sarah Österling,1406,3000000,2022-03-22,107143,212,59.3275448270931,18.0120849609375
20220824,Åsögatan 120,28,1,Unknown,859,3000000,2022-08-24,107143,1000,59.3131803952717,18.0759429931641
2020113,Ringvägen 151B,28,1,Unknown,1694,3010000,2020-11-03,107500,790,59.3096759544436,18.08349609375
2021096,Birger Jarlsgatan 104 N,28,1,Unknown,1998,3017500,2021-09-06,107768,1200,59.3478548774249,18.0622100830078
2021097,Klippgatan 14,28,1,Fredrik Brunned,1450,3025000,2021-09-07,108036,720,59.3142316570946,18.0883026123047
20220823,Lundagatan 48 B,28,1,Unknown,1541,3075000,2022-08-23,109821,667,59.3187867494125,18.0429840087891
2022105,Alströmergatan 9,28,1,Unknown,1665,3100000,2022-10-05,110714,527,59.3352500687998,18.0306243896484
20221024,Kommendörsgatan 33A,28,1,Unknown,1501,3100000,2022-10-24,110714,826,59.3373511951061,18.0862426757813
20220117,Kungsholms Kyrkoplan 4,28,1,Unknown,1488,3100000,2022-01-17,110714,1300,59.329296171828,18.0491638183594
2022029,Ringvägen 127 B,28,1,Unknown,1147,3100000,2022-02-09,110714,845,59.3082740769846,18.0780029296875
20210420,Valhallavägen 22 A,28,2,Unknown,2060,3150000,2021-04-20,112500,1200,59.3482049442239,18.0628967285156
20220615,Tre liljor 2A,28,1,Unknown,1500,3150000,2022-06-15,112500,943,59.3478548774249,18.0450439453125
20220726,Roslagsgatan 53,28,1,Unknown,1401,3150000,2022-07-26,112500,1000,59.3496051753289,18.0560302734375
2020119,Åsögatan 118,28,1,Unknown,878,3150000,2020-11-09,112500,994,59.3128299674411,18.0752563476563
20210929,Torbjörn klockares gata 15,28,1,Unknown,1387,3190000,2021-09-29,113929,560,59.3454043087755,18.0347442626953
20220617,Kammakargatan 64,28,1,Amanda Treutiger,2183,3200000,2022-06-17,114286,1400,59.3370010164131,18.0532836914063
20220310,Ringvägen 151 A,28,1,Richard Wall,1618,3200000,2022-03-10,114286,791,59.3093254904965,18.08349609375
2022107,Lundagatan 48B,28,1,Unknown,1541,3200000,2022-10-07,114286,667,59.3187867494125,18.0429840087891
20220822,Alströmergatan 32M - Högst upp,28,1,Unknown,1534,3200000,2022-08-22,114286,411,59.3370010164131,18.0265045166016
20220425,Bergsgatan 49,28,1,Robin Nyvall,1265,3200000,2022-04-25,114286,723,59.330346935344,18.0374908447266
20220331,Valhallavägen 152C,28,2,Unknown,1170,3200000,2022-03-31,114286,411,59.3394521914579,18.0924224853516
20210218,Hedemoratäppan 1,28,1,Niclas Fernelius,1585,3225000,2021-02-18,115179,594,59.344704113821,18.0368041992188
20210928,Fleminggatan 89,28,1,Mattias Nilsson,1041,3230000,2021-09-28,115357,552,59.3345496644847,18.0313110351563
20220114,Alströmergatan 32 M - högst upp!,28,1,Unknown,1534,3235000,2022-01-14,115536,411,59.3370010164131,18.0265045166016
2021064,Alströmergatan 32L,28,1,Unknown,1461,3250000,2021-06-04,116071,409,59.3373511951061,18.0265045166016
20221111,Valhallavägen 152B,28,1,Unknown,1170,3260000,2022-11-11,116429,411,59.3394521914579,18.0924224853516
20210915,Alströmergatan 32S - Högst upp,28,1,Unknown,1397,3265000,2021-09-15,116607,437,59.3366508341103,18.0271911621094
20220131,Roslagsgatan 29 1,28,1,Unknown,1758,3300000,2022-01-31,117857,1200,59.3478548774249,18.0580902099609
2022039,Borgmästargatan 10B,28,1,Unknown,1618,3300000,2022-03-09,117857,847,59.3142316570946,18.0862426757813
20220215,Valhallavägen 22,28,2,Adam Behrer,1810,3325000,2022-02-15,118750,1200,59.3482049442239,18.0628967285156
2022038,Hantverkargatan 46,28,1,Unknown,1400,3325000,2022-03-08,118750,735,59.3296464299437,18.0381774902344
20220627,Rehnsgatan 15,28,1,Moa Frick,1100,3350000,2022-06-27,119643,1400,59.3426034423325,18.0594635009766
20220220,Brantingsgatan 18,28,1,Unknown,1467,3400000,2022-02-20,121429,310,59.3464545741376,18.0937957763672
20220815,Frejgatan 36A,28,1,Unknown,1850,3475000,2022-08-15,124107,1100,59.344704113821,18.0471038818359
20211220,Torsgatan 40 A,28,1,Unknown,1897,3550000,2021-12-20,126786,664,59.3408527834981,18.0388641357422
2021083,Roslagsgatan 15a,28,1,Veronica Andersson,1473,3550000,2021-08-03,126786,1300,59.3464545741376,18.0587768554688
2022056,Kammakargatan 43,28,1,Michelle Carlsson,1534,3575000,2022-05-06,127679,1400,59.3366508341103,18.0532836914063
20210611,Frejgatan 89a,28,2,Unknown,1424,3700000,2021-06-11,132143,973,59.3436537943191,18.0443572998047
20220224,Riddargatan 43B gårdshus,28,1,Malin Sjöblom,1251,3700000,2022-02-24,132143,785,59.3327985905208,18.0883026123047
2022103,Vidargatan 4,28,2,Daniel Levin,1043,3800000,2022-10-03,135714,1100,59.3440039044291,18.0484771728516
20210817,Rådmansgatan 18,28,2,Peter Pedersen,1099,3810000,2021-08-17,136071,1300,59.3429535632708,18.0656433105469
20220321,Grevgatan 70,28,1,Magnus Larsson,2165,4000000,2022-03-21,142857,643,59.3387518737797,18.0883026123047
20220526,Wallingatan 11,28,1,Caroline Hanell,1942,4025000,2022-05-26,143750,1500,59.3366508341103,18.0574035644531
20210519,Banérgatan 39,28,1,Erik Frisk,1017,4350000,2021-05-19,155357,332,59.3373511951061,18.0951690673828
20210510,Jungfrugatan 22 - 2 tr ög,28,2,Unknown,1654,4425000,2021-05-10,158036,997,59.3373511951061,18.0828094482422
2021129,Styrmansgatan 16 B,28,1,Amanda Marti de Luque,1948,4500000,2021-12-09,160714,910,59.3334990309366,18.0862426757813
20221019,Doktor Widerströms gata 50 D,28.1,1,Unknown,2225,1775000,2022-10-19,63167,25,59.2858361772109,17.9571533203125
20220713,Vårbergsvägen 191A,28.5,1,Alexander Larsson,1530,1395000,2022-07-13,48947,6,59.2791720768421,17.8864288330078
20210420,Logvägen 83 (Våning 1),28.5,1,Jimmy Solkarin,2077,1600000,2021-04-20,56140,21,59.3768981421961,17.90771484375
2021064,Harpsundsvägen 77,28.5,1,Zerina Teymur,1774,1930000,2021-06-04,67719,22,59.2623306434156,18.0436706542969
20220428,Harpsundsvägen 147 Våning 1 (ACCEPTERAT PRIS),28.5,1,Andy Shabo,1926,1950000,2022-04-28,68421,20,59.2602248786613,18.0450439453125
20220823,Harpsundsvägen 143,28.5,1,Unknown,1926,2000000,2022-08-23,70175,20,59.2602248786613,18.0443572998047
2022047,Harpsundsvägen 125,28.5,1,Unknown,1880,2000000,2022-04-07,70175,21,59.2609268147064,18.0436706542969
20220928,Knektvägen 15,28.5,1,Unknown,1754,2100000,2022-09-28,73684,23,59.2623306434156,18.0814361572266
20221123,Cardellgatan 4a,28.5,1,Veronica Andersson,2012,3650000,2022-11-23,128070,1300,59.338401709526,18.0759429931641
20220623,Gumshornsgatan 7,28.5,1,Veronica Andersson,1796,3800000,2022-06-23,133333,616,59.3363006481976,18.0889892578125
20210928,Östermalmsgatan 79A,28.5,1,Sofia Elfsson da Costa,1413,4400000,2021-09-28,154386,899,59.3408527834981,18.0841827392578
20221222,Alpvägen 10,28.7,1,Philip Durling,2679,1550000,2022-12-22,54007,103,59.362204656979,17.9544067382813
20210916,Alpvägen 10 Accepterat pris!,28.7,1,Linn Johansson,2551,1870000,2021-09-16,65157,103,59.362204656979,17.9544067382813
20211116,Alpvägen 10 Accepterat pris,28.7,1,Josef Khan,2551,1879000,2021-11-16,65470,103,59.362204656979,17.9544067382813
2022114,Tjärhovsgatan 10,28.9,1,Unknown,1225,2650000,2022-11-04,91696,1100,59.3149324802526,18.0752563476563
2022104,Nystadsgatan 15,29,1,Pezhman Ivinger,2162,1285000,2022-10-04,44310,14,59.4143027950499,17.918701171875
20221220,Duvedsvägen 3 (0153 / 903),29,1,Micaela Rebel,2119,1320000,2022-12-20,45517,33,59.3664034449979,17.8726959228516
20221126,Mörsilsgatan 18,29,1,Unknown,1977,1465000,2022-11-26,50517,32,59.3657036830743,17.8740692138672
20220620,Hundlokegränd 18,29,1,Niklas Bergsten,2228,1530000,2022-06-20,52759,13,59.3744496699135,17.8376770019531
20201023,Mörsilsgatan 20,29,1,Unknown,1997,1600000,2020-10-23,55172,31,59.3657036830743,17.874755859375
2022119,Mörsilsgatan 30,29,1,Unknown,1451,1600000,2022-11-09,55172,33,59.3650039067192,17.8768157958984
20220511,Mörsilsgatan 8 (Vån 1),29,1,Josef Gubrail,1977,1625000,2022-05-11,56034,30,59.3664034449979,17.8740692138672
2021068,Stamdikesvägen 6C,29,1,Josef Gubrail,1881,1700000,2021-06-08,58621,30,59.3744496699135,17.8692626953125
20210412,Mörsilsgatan 20 (Våning 3),29,2,Jimmy Solkarin,1977,1750000,2021-04-12,60345,31,59.3657036830743,17.874755859375
20211118,Gamla Huddingevägen 415,29,1,Unknown,1863,1750000,2021-11-18,60345,21,59.2760149423853,18.028564453125
20221021,Storforsplan 3,29,1,William Westrup,1635,1800000,2022-10-21,62069,42,59.2412671387084,18.0917358398438
20221027,Harpsundsvägen 31,29,1,Unknown,1521,1805000,2022-10-27,62241,21,59.2633834769899,18.0450439453125
20220119,Sjösavägen 15,29,1,Unknown,2020,1900000,2022-01-19,65517,24,59.2689980399324,18.03955078125
20220328,Skebokvarnsvägen 317,29,1,Unknown,2019,1950000,2022-03-28,67241,22,59.2626815915554,18.0381774902344
20220225,Sparbanksvägen 14 lgh 1003,29,1,William Kajo,1933,1950000,2022-02-25,67241,58,59.2981087370418,17.9825592041016
20220217,Holbergsgatan 38A,29,2,Alexandra Tyledal,1499,1975000,2022-02-17,68103,38,59.3468046553733,17.8878021240234
20220614,Skebokvarnsvägen 201,29,1,Unknown,1709,1985000,2022-06-14,68448,23,59.265489046536,18.0374908447266
20211221,Svalvägen 3,29,1,Lovisa Ek,2168,1995000,2021-12-21,68793,81,59.3587052700704,17.95166015625
20220810,Valutavägen 27,29,1,Unknown,2280,2015000,2022-08-10,69483,61,59.2970569767589,17.9791259765625
20211110,Gubbkärrsvägen 29N 1tr,29,1,Noomi Unéus,1917,2075000,2021-11-10,71552,11,59.3313976663669,17.9145812988281
2022045,Frimärksvägen 3,29,1,Unknown,2556,2100000,2022-04-05,72414,29,59.27320835489,18.0649566650391
20220520,Ellen Keys gata 57,29,1,Unknown,1839,2100000,2022-05-20,72414,32,59.2861868832002,17.9667663574219
20201126,Stockholmsvägen 27,29,1,Unknown,2167,2300000,2020-11-26,79310,85,59.2837318653929,18.0869293212891
20221020,Radiusbacken 39,29,1,Valencia Can,1933,2350000,2022-10-20,81034,101,59.2981087370418,18.0052185058594
2021049,Bäckvägen 110,29,1,Unknown,1817,2400000,2021-04-09,82759,73,59.3016143698395,17.9873657226563
20220825,Ljusstöparbacken 5A,29,1,Unknown,1786,2450000,2022-08-25,84483,181,59.3142316570946,18.0113983154297
2022029,Gamla Tyresövägen 310,29,1,Destiny Fröstad,1776,2450000,2022-02-09,84483,71,59.2837318653929,18.0999755859375
20211027,Hunnebergsvägen 6,29,1,Rebecca Bloss,1809,2525000,2021-10-27,87069,54,59.3345496644847,17.9825592041016
20221215,Luxgatan 7,29,1,Unknown,1686,2610000,2022-12-15,90000,159,59.3243921791053,18.0086517333984
20221011,Ola Hanssonsgatan 1,29,1,David Rågberg,1830,2620000,2022-10-11,90345,131,59.3334990309366,18.0004119873047
2022084,Artemisgatan 3B,29,1,Unknown,1671,2635000,2022-08-04,90862,126,59.3541555276338,18.1013488769531
20221127,Furusundsgatan 7,29,1,Unknown,2146,2650000,2022-11-27,91379,241,59.3478548774249,18.0965423583984
2022104,Ehrensvärdsgatan 6,29,1,Unknown,1117,2725000,2022-10-04,93966,640,59.3285956447654,18.0347442626953
20220810,Bergsgatan 14,29,1,Unknown,1268,2750000,2022-08-10,94828,1300,59.329296171828,18.0484771728516
20221111,Smedsbacksgatan 26,29,1,Emmy Thorén,2141,2805000,2022-11-11,96724,201,59.3485550074137,18.0986022949219
2020121,Ernst Ahlgrens väg 2,29,1,Unknown,1625,2810000,2020-12-01,96897,132,59.3310474263029,18.0045318603516
2022129,Möregatan 10,29,1,Unknown,1646,2850000,2022-12-09,98276,960,59.311428220003,18.0697631835938
2022068,Beckbrännarbacken 6,29,1,Unknown,1641,2850000,2022-06-08,98276,779,59.3149324802526,18.0876159667969
20220519,Dianavägen 9,29,1,Marcus Ljungdahl,1252,2850000,2022-05-19,98276,103,59.3548555277029,18.1027221679688
2021064,Orvar Odds Väg 10,29,1,Unknown,1716,2900000,2021-06-04,100000,126,59.329996684449,17.9983520507813
20220925,Kammakargatan 70- uteplats,29,1,Unknown,1512,2920000,2022-09-25,100690,1300,59.3366508341103,18.0519104003906
20210820,Artillerigatan 72 A,29,1,Unknown,1646,2950000,2021-08-20,101724,534,59.3422533177847,18.0889892578125
20220825,Skillinggränd 3,29,1,Andreas Gunnarsson,1457,2950000,2022-08-25,101724,1300,59.3271945473146,18.0484771728516
2022077,Frödingsvägen 1,29,1,Unknown,1625,3000000,2022-07-07,103448,131,59.3310474263029,18.0038452148438
20210512,Lundagatan 40,29,1,Unknown,1504,3000000,2021-05-12,103448,771,59.3184363793632,18.0457305908203
20220425,Alströmergatan 32O,29,1,Unknown,1467,3000000,2022-04-25,103448,436,59.3370010164131,18.0271911621094
2022068,Högalidsgatan 11A,29,1,Unknown,1330,3000000,2022-06-08,103448,424,59.317735628431,18.0333709716797
20221118,Tomtebogatan 34c,29,1,Niclas Behrer,1560,3045000,2022-11-18,105000,475,59.3419031896274,18.0292510986328
20221110,Rörstrandsgatan 23,29,1,Nicola Grez-Pancetti,1405,3050000,2022-11-10,105172,499,59.3401524946973,18.0306243896484
20210318,Katarina bangata 19,29,1,Unknown,2040,3100000,2021-03-18,106897,952,59.3121291009452,18.0766296386719
20220510,Alströmergatan 23,29,1,Emma Rågberg fd Hjalmarsson,1340,3100000,2022-05-10,106897,518,59.3356002655423,18.0306243896484
20221110,Skeppargatan 81,29,1,Unknown,1693,3175000,2022-11-10,109483,442,59.3433036805996,18.0903625488281
2022114,Atlasgatan 12,29,1,Amanda Treutiger,1279,3220000,2022-11-04,111034,631,59.338401709526,18.0381774902344
20221021,Karlbergsvägen 80 A,29,1,Unknown,1487,3225000,2022-10-21,111207,474,59.3433036805996,18.0292510986328
20221020,Karlbergsvägen 80A,29,1,Fredrik Brunned,1487,3250000,2022-10-20,112069,474,59.3433036805996,18.0292510986328
20220731,Vanadisvägen 4,29,1,Unknown,1395,3250000,2022-07-31,112069,1000,59.3482049442239,18.050537109375
2022048,Frödingsvägen 1 Lgh 1401,29,1,Jakob Gustavsson,1625,3300000,2022-04-08,113793,131,59.3310474263029,18.0038452148438
20220815,Gästrikegatan 12,29,1,Unknown,1458,3300000,2022-08-15,113793,739,59.3415530578605,18.0402374267578
20220811,Chapmansgatan 4,29,1,Unknown,1234,3300000,2022-08-11,113793,607,59.3285956447654,18.0333709716797
20220913,Katarina Bangata 42A,29,1,Unknown,923,3300000,2022-09-13,113793,861,59.3110777741145,18.0807495117188
20210427,Helgalunden 9,29,1,Richard Wall,1948,3310000,2021-04-27,114138,900,59.3103768715025,18.0711364746094
20210223,Wollmar Yxkullsgatan 29,29,1,Unknown,843,3310000,2021-02-23,114138,941,59.3156332889651,18.0553436279297
20210217,Fredmansgatan 9,29,1,Unknown,1468,3320000,2021-02-17,114483,1300,59.3166844749487,18.0663299560547
20221213,Valhallavägen 53,29,2,Unknown,1663,3325000,2022-12-13,114655,1200,59.3471547329996,18.0670166015625
20220818,Bjurholmsplan 17,29,1,Unknown,1526,3330000,2022-08-18,114828,829,59.3096759544436,18.0800628662109
2021068,Sågargatan 16,29,1,Unknown,2141,3400000,2021-06-08,117241,554,59.3142316570946,18.0910491943359
2022105,Tegnérgatan 19,29,1,Unknown,1337,3440000,2022-10-05,118621,1500,59.3398023448825,18.0615234375
2022027,Torsgatan 77,29,1,Daniel Aslan,1597,3450000,2022-02-07,118966,541,59.3454043087755,18.0340576171875
20220831,Drottninggatan 73A,29,1,Emil Hoffman,751,3480000,2022-08-31,120000,1600,59.3366508341103,18.0580902099609
20220218,Bondegatan 1 D,29,1,Unknown,1446,3500000,2022-02-18,120690,975,59.3124795359989,18.0759429931641
20220218,Västmannagatan 57,29,1,Emillio Afram,1074,3500000,2022-02-18,120690,1100,59.3419031896274,18.0471038818359
20201014,Lorensbergsgatan 1B,29,1,Unknown,1390,3535000,2020-10-14,121897,447,59.3194874786778,18.0347442626953
20220129,Alströmergatan 32M,29,1,Linus Wallinder,1534,3550000,2022-01-29,122414,411,59.3370010164131,18.0265045166016
20220330,Bondegatan 1D,29,1,Unknown,1446,3550000,2022-03-30,122414,975,59.3124795359989,18.0759429931641
2022111,Västmannagatan 69,29,1,Unknown,1020,3600000,2022-11-01,124138,1000,59.3433036805996,18.0457305908203
20220517,Helgagatan 36G,29,1,Unknown,1631,3625000,2022-05-17,125000,893,59.3096759544436,18.0697631835938
2021096,David Bagares Gata 20B,29,1,Unknown,1164,3700000,2021-09-06,127586,1500,59.3373511951061,18.0670166015625
20220516,Roslagsgatan 59,29,1,Unknown,1646,3720000,2022-05-16,128276,1100,59.3492551229662,18.0560302734375
20210326,Frejgatan 89A,29,1,Unknown,1563,3775000,2021-03-26,130172,973,59.3436537943191,18.0443572998047
20220118,Karlbergsvägen 25C,29,1,Erin Kiruk,1312,4075000,2022-01-18,140517,860,59.3422533177847,18.0422973632813
